[
 {
   "StoreKey": 2308,
   "AreaManagers": "Nelson, Kellie | EASTMAN, TERRY | Nguyen, Vu | McGinnis (UNILV), John",
   "RegionalManagers": "Veronica Hernandez |  | Angel Bruce | Angela Mons Unilever DRT RAD",
   "Teams": "WM - Walmart/Sams PSP | Crossmark Walmart PSP | Dedicated - Walmart PSP | Unilever - DRT",
   "StoreName": "Walmart",
   "City": "Lihue",
   "State": "HI",
   "Latitude": 21.9823356,
   "Longitude": -159.3650977
 },
 {
   "StoreKey": 3883,
   "AreaManagers": "Nelson, Kellie | EASTMAN, TERRY | Nguyen, Vu",
   "RegionalManagers": "Veronica Hernandez |  | Angel Bruce",
   "Teams": "WM - Walmart/Sams PSP | Crossmark Walmart PSP | Dedicated - Walmart PSP",
   "StoreName": "Walmart",
   "City": "Kapolei",
   "State": "HI",
   "Latitude": 21.3421165,
   "Longitude": -158.0751382
 },
 {
   "StoreKey": 2314,
   "AreaManagers": "Nelson, Kellie | EASTMAN, TERRY | Nguyen, Vu | Porter, Trena",
   "RegionalManagers": "Veronica Hernandez |  | Angel Bruce",
   "Teams": "WM - Walmart/Sams PSP | Crossmark Walmart PSP | Dedicated - Walmart PSP",
   "StoreName": "Walmart",
   "City": "WAIPAHU",
   "State": "HI",
   "Latitude": 21.3912418,
   "Longitude": -158.0345033
 },
 {
   "StoreKey": 2126,
   "AreaManagers": "Nelson, Kellie | EASTMAN, TERRY | Nguyen, Vu",
   "RegionalManagers": "Veronica Hernandez |  | Angel Bruce",
   "Teams": "WM - Walmart/Sams PSP | Crossmark Walmart PSP | Dedicated - Walmart PSP",
   "StoreName": "Walmart",
   "City": "MILILANI",
   "State": "HI",
   "Latitude": 21.4503472,
   "Longitude": -158.005317
 },
 {
   "StoreKey": 6410,
   "AreaManagers": "Nelson, Kellie",
   "RegionalManagers": "Veronica Hernandez",
   "Teams": "WM - Walmart/Sams PSP",
   "StoreName": "Sam's Club",
   "City": "Pearl City",
   "State": "HI",
   "Latitude": 21.3958748,
   "Longitude": -157.9749987
 },
 {
   "StoreKey": 5274,
   "AreaManagers": "Nelson, Kellie | EASTMAN, TERRY | Nguyen, Vu",
   "RegionalManagers": "Veronica Hernandez |  | Angel Bruce",
   "Teams": "WM - Walmart/Sams PSP | Crossmark Walmart PSP | Dedicated - Walmart PSP",
   "StoreName": "Walmart",
   "City": "Pearl City",
   "State": "HI",
   "Latitude": 21.3971335,
   "Longitude": -157.9745329
 },
 {
   "StoreKey": 4755,
   "AreaManagers": "Nelson, Kellie",
   "RegionalManagers": "Veronica Hernandez",
   "Teams": "WM - Walmart/Sams PSP",
   "StoreName": "Sam's Club",
   "City": "Honolulu",
   "State": "HI",
   "Latitude": 21.2941879,
   "Longitude": -157.8426505
 },
 {
   "StoreKey": 3478,
   "AreaManagers": "Nelson, Kellie | EASTMAN, TERRY | Nguyen, Vu | Shannon (UNILV), Kimberly",
   "RegionalManagers": "Veronica Hernandez |  | Angel Bruce | Angela Mons Unilever DRT RAD",
   "Teams": "WM - Walmart/Sams PSP | Crossmark Walmart PSP | Dedicated - Walmart PSP | Unilever - DRT",
   "StoreName": "Walmart",
   "City": "Honolulu",
   "State": "HI",
   "Latitude": 21.2948256,
   "Longitude": -157.8419903
 },
 {
   "StoreKey": 3290,
   "AreaManagers": "Nelson, Kellie | EASTMAN, TERRY | Nguyen, Vu | Shannon (UNILV), Kimberly | Chiger UNILV, Brandon",
   "RegionalManagers": "Veronica Hernandez |  | Angel Bruce | Angela Mons Unilever DRT RAD | Connie Germoso UNVIL",
   "Teams": "WM - Walmart/Sams PSP | Crossmark Walmart PSP | Dedicated - Walmart PSP | Unilever - DRT",
   "StoreName": "Walmart",
   "City": "Kahului",
   "State": "HI",
   "Latitude": 20.8785741,
   "Longitude": -156.4556912
 },
 {
   "StoreKey": 2321,
   "AreaManagers": "Nelson, Kellie | EASTMAN, TERRY | Nguyen, Vu",
   "RegionalManagers": "Veronica Hernandez |  | Angel Bruce",
   "Teams": "WM - Walmart/Sams PSP | Crossmark Walmart PSP | Dedicated - Walmart PSP",
   "StoreName": "Walmart",
   "City": "KAILUA KONA",
   "State": "HI",
   "Latitude": 19.6460779,
   "Longitude": -155.9903379
 },
 {
   "StoreKey": 2473,
   "AreaManagers": "Nelson, Kellie | EASTMAN, TERRY | Nguyen, Vu | Ott (UNILV), Jan",
   "RegionalManagers": "Veronica Hernandez |  | Angel Bruce | Angela Mons Unilever DRT RAD",
   "Teams": "WM - Walmart/Sams PSP | Crossmark Walmart PSP | Dedicated - Walmart PSP | Unilever - DRT",
   "StoreName": "Walmart",
   "City": "HILO",
   "State": "HI",
   "Latitude": 19.7002659,
   "Longitude": -155.0618477
 },
 {
   "StoreKey": 2711,
   "AreaManagers": "Brandon, Kolby | WIBOWO, JILL | Simpson, Gena",
   "RegionalManagers": "Veronica Hernandez |  | Roy Anders",
   "Teams": "WM - Walmart/Sams PSP | Crossmark Walmart PSP | Dedicated - Walmart PSP",
   "StoreName": "Walmart",
   "City": "KODIAK",
   "State": "AK",
   "Latitude": 57.8118201,
   "Longitude": -152.365276
 },
 {
   "StoreKey": 4474,
   "AreaManagers": "Brandon, Kolby | WIBOWO, JILL | Simpson, Gena",
   "RegionalManagers": "Veronica Hernandez |  | Roy Anders",
   "Teams": "WM - Walmart/Sams PSP | Crossmark Walmart PSP | Dedicated - Walmart PSP",
   "StoreName": "Walmart SC",
   "City": "KENAI",
   "State": "AK",
   "Latitude": 60.5640635,
   "Longitude": -151.2249052
 },
 {
   "StoreKey": 2070,
   "AreaManagers": "Brandon, Kolby | WIBOWO, JILL | Simpson, Gena | Ott (UNILV), Jan",
   "RegionalManagers": "Veronica Hernandez |  | Roy Anders | Angela Mons Unilever DRT RAD",
   "Teams": "WM - Walmart/Sams PSP | Crossmark Walmart PSP | Dedicated - Walmart PSP | Unilever - DRT",
   "StoreName": "Walmart SC",
   "City": "Anchorage",
   "State": "AK",
   "Latitude": 61.1922645,
   "Longitude": -149.8802643
 },
 {
   "StoreKey": 2071,
   "AreaManagers": "Brandon, Kolby | WIBOWO, JILL | Simpson, Gena | Navor (UNILV), Michael",
   "RegionalManagers": "Veronica Hernandez |  | Roy Anders | Veronica Mendez UNVIL",
   "Teams": "WM - Walmart/Sams PSP | Crossmark Walmart PSP | Dedicated - Walmart PSP | Unilever - DRT",
   "StoreName": "Walmart SC",
   "City": "Anchorage",
   "State": "AK",
   "Latitude": 61.14032579,
   "Longitude": -149.8699228
 },
 {
   "StoreKey": 4359,
   "AreaManagers": "Brandon, Kolby | WIBOWO, JILL | Simpson, Gena",
   "RegionalManagers": "Veronica Hernandez |  | Roy Anders",
   "Teams": "WM - Walmart/Sams PSP | Crossmark Walmart PSP | Dedicated - Walmart PSP",
   "StoreName": "Walmart SC",
   "City": "Anchorage",
   "State": "AK",
   "Latitude": 61.2118328,
   "Longitude": -149.7435267
 },
 {
   "StoreKey": 2188,
   "AreaManagers": "Brandon, Kolby | WIBOWO, JILL | Simpson, Gena | Renfrow (UNILV), Kimberly | Ruiz (UNILV), Pedro | Cowley (UNILV), Matthew",
   "RegionalManagers": "Veronica Hernandez |  | Roy Anders | Veronica Mendez UNVIL | Angela Mons Unilever DRT RAD | Connie Germoso UNVIL",
   "Teams": "WM - Walmart/Sams PSP | Crossmark Walmart PSP | Dedicated - Walmart PSP | Unilever - DRT",
   "StoreName": "Walmart SC",
   "City": "Eagle River",
   "State": "AK",
   "Latitude": 61.3090066,
   "Longitude": -149.5351648
 },
 {
   "StoreKey": 2074,
   "AreaManagers": "Brandon, Kolby | WIBOWO, JILL | Simpson, Gena",
   "RegionalManagers": "Veronica Hernandez |  | Roy Anders",
   "Teams": "WM - Walmart/Sams PSP | Crossmark Walmart PSP | Dedicated - Walmart PSP",
   "StoreName": "Walmart SC",
   "City": "Wasilla",
   "State": "AK",
   "Latitude": 61.5689106,
   "Longitude": -149.3649594
 },
 {
   "StoreKey": 2722,
   "AreaManagers": "Brandon, Kolby | WIBOWO, JILL | Simpson, Gena",
   "RegionalManagers": "Veronica Hernandez |  | Roy Anders",
   "Teams": "WM - Walmart/Sams PSP | Crossmark Walmart PSP | Dedicated - Walmart PSP",
   "StoreName": "Walmart SC",
   "City": "Fairbanks",
   "State": "AK",
   "Latitude": 64.8564379,
   "Longitude": -147.6892897
 },
 {
   "StoreKey": 2710,
   "AreaManagers": "Brandon, Kolby | WIBOWO, JILL | Simpson, Gena",
   "RegionalManagers": "Veronica Hernandez |  | Roy Anders",
   "Teams": "WM - Walmart/Sams PSP | Crossmark Walmart PSP | Dedicated - Walmart PSP",
   "StoreName": "Walmart",
   "City": "Ketchican",
   "State": "AK",
   "Latitude": 55.3754685,
   "Longitude": -131.720571
 },
 {
   "StoreKey": 1880,
   "AreaManagers": "Brandon, Kolby | Kristek, Dustin | Simpson, Gena | Mathis (UNILV), Judith",
   "RegionalManagers": "Veronica Hernandez | Shannon Falcon RAD | Roy Anders | Connie Germoso UNVIL",
   "Teams": "WM - Walmart/Sams PSP | Crossmark Walmart PSP | Dedicated - Walmart PSP | Unilever - DRT",
   "StoreName": "Walmart SC",
   "City": "COOS BAY",
   "State": "OR",
   "Latitude": 43.3895765,
   "Longitude": -124.2523331
 },
 {
   "StoreKey": 5629,
   "AreaManagers": "Brandon, Kolby | ALCALA, ALEJANDRO | Cross, Shawn",
   "RegionalManagers": "Veronica Hernandez | Shannon Falcon RAD | Angel Bruce",
   "Teams": "WM - Walmart/Sams PSP | Crossmark Walmart PSP | Dedicated - Walmart PSP",
   "StoreName": "Walmart",
   "City": "EUREKA",
   "State": "CA",
   "Latitude": 40.7806323,
   "Longitude": -124.190531
 },
 {
   "StoreKey": 1910,
   "AreaManagers": "Brandon, Kolby | ALCALA, ALEJANDRO | Cross, Shawn",
   "RegionalManagers": "Veronica Hernandez | Shannon Falcon RAD | Angel Bruce",
   "Teams": "WM - Walmart/Sams PSP | Crossmark Walmart PSP | Dedicated - Walmart PSP",
   "StoreName": "Walmart SC",
   "City": "CRESCENT CITY",
   "State": "CA",
   "Latitude": 41.7748094,
   "Longitude": -124.1899378
 },
 {
   "StoreKey": 1925,
   "AreaManagers": "Brandon, Kolby | Kristek, Dustin | Simpson, Gena | Shannon (UNILV), Kimberly",
   "RegionalManagers": "Veronica Hernandez | Shannon Falcon RAD | Roy Anders | Angela Mons Unilever DRT RAD",
   "Teams": "WM - Walmart/Sams PSP | Crossmark Walmart PSP | Dedicated - Walmart PSP | Unilever - DRT",
   "StoreName": "Walmart SC",
   "City": "Newport",
   "State": "OR",
   "Latitude": 44.6565289,
   "Longitude": -124.0544848
 },
 {
   "StoreKey": 5861,
   "AreaManagers": "Brandon, Kolby | Kristek, Dustin | Simpson, Gena | Husk (UNILV), James",
   "RegionalManagers": "Veronica Hernandez | Shannon Falcon RAD | Roy Anders | Connie Germoso UNVIL",
   "Teams": "WM - Walmart/Sams PSP | Crossmark Walmart PSP | Dedicated - Walmart PSP | Unilever - DRT",
   "StoreName": "Walmart SC",
   "City": "Warrenton",
   "State": "OR",
   "Latitude": 46.1453676,
   "Longitude": -123.9175792
 },
 {
   "StoreKey": 2037,
   "AreaManagers": "Brandon, Kolby | Kristek, Dustin | Simpson, Gena",
   "RegionalManagers": "Veronica Hernandez | Shannon Falcon RAD | Roy Anders",
   "Teams": "WM - Walmart/Sams PSP | Crossmark Walmart PSP | Dedicated - Walmart PSP",
   "StoreName": "Walmart SC",
   "City": "ABERDEEN",
   "State": "WA",
   "Latitude": 46.9754934,
   "Longitude": -123.8064545
 },
 {
   "StoreKey": 2477,
   "AreaManagers": "Brandon, Kolby | Kristek, Dustin | Simpson, Gena",
   "RegionalManagers": "Veronica Hernandez | Shannon Falcon RAD | Roy Anders",
   "Teams": "WM - Walmart/Sams PSP | Crossmark Walmart PSP | Dedicated - Walmart PSP",
   "StoreName": "Walmart SC",
   "City": "ROSEBURG",
   "State": "OR",
   "Latitude": 43.2352969,
   "Longitude": -123.3689012
 },
 {
   "StoreKey": 2196,
   "AreaManagers": "Brandon, Kolby | Kristek, Dustin | Simpson, Gena | Ruiz (UNILV), Pedro",
   "RegionalManagers": "Veronica Hernandez | Shannon Falcon RAD | Roy Anders | Angela Mons Unilever DRT RAD",
   "Teams": "WM - Walmart/Sams PSP | Crossmark Walmart PSP | Dedicated - Walmart PSP | Unilever - DRT",
   "StoreName": "Walmart SC",
   "City": "Port Angeles",
   "State": "WA",
   "Latitude": 48.1109791,
   "Longitude": -123.3620161
 },
 {
   "StoreKey": 2315,
   "AreaManagers": "Brandon, Kolby | Kristek, Dustin | Simpson, Gena | Oblenis, Keith | Renfrow (UNILV), Kimberly",
   "RegionalManagers": "Veronica Hernandez | Shannon Falcon RAD | Roy Anders | LT Haymon RAD WMTyson | Veronica Mendez UNVIL",
   "Teams": "WM - Walmart/Sams PSP | Crossmark Walmart PSP | Dedicated - Walmart PSP | WM - DRT - Tyson | Unilever - DRT",
   "StoreName": "Walmart",
   "City": "Dallas",
   "State": "OR",
   "Latitude": 44.9314365,
   "Longitude": -123.3067279
 },
 {
   "StoreKey": 1834,
   "AreaManagers": "Brandon, Kolby | ALCALA, ALEJANDRO | Simpson, Gena | Navor (UNILV), Michael | Ruiz (UNILV), Pedro",
   "RegionalManagers": "Veronica Hernandez | Shannon Falcon RAD | Roy Anders | Veronica Mendez UNVIL | Angela Mons Unilever DRT RAD",
   "Teams": "WM - Walmart/Sams PSP | Crossmark Walmart PSP | Dedicated - Walmart PSP | Unilever - DRT",
   "StoreName": "Walmart SC",
   "City": "GRANTS PASS",
   "State": "OR",
   "Latitude": 42.4344169,
   "Longitude": -123.3019268
 },
 {
   "StoreKey": 3146,
   "AreaManagers": "Brandon, Kolby | Kristek, Dustin | Simpson, Gena",
   "RegionalManagers": "Veronica Hernandez | Shannon Falcon RAD | Roy Anders",
   "Teams": "WM - Walmart/Sams PSP | Crossmark Walmart PSP | Dedicated - Walmart PSP",
   "StoreName": "Walmart NM",
   "City": "CORVALLIS",
   "State": "OR",
   "Latitude": 44.5866592,
   "Longitude": -123.2592469
 },
 {
   "StoreKey": 2052,
   "AreaManagers": "Cline, Jennifer | ALCALA, ALEJANDRO | Cross, Shawn",
   "RegionalManagers": "Veronica Hernandez | Shannon Falcon RAD | Angel Bruce",
   "Teams": "WM - Walmart/Sams PSP | Crossmark Walmart PSP | Dedicated - Walmart PSP",
   "StoreName": "Walmart",
   "City": "UKIAH",
   "State": "CA",
   "Latitude": 39.133683,
   "Longitude": -123.1969156
 },
 {
   "StoreKey": 1843,
   "AreaManagers": "Brandon, Kolby | Kristek, Dustin | Simpson, Gena | Oblenis, Keith | Navor (UNILV), Michael | Guzman (UNILV), Yolanda",
   "RegionalManagers": "Veronica Hernandez | Shannon Falcon RAD | Roy Anders | LT Haymon RAD WMTyson | Veronica Mendez UNVIL | Angela Mons Unilever DRT RAD",
   "Teams": "WM - Walmart/Sams PSP | Crossmark Walmart PSP | Dedicated - Walmart PSP | WM - DRT - Tyson | Unilever - DRT",
   "StoreName": "Walmart",
   "City": "Mcminnville",
   "State": "OR",
   "Latitude": 45.2299754,
   "Longitude": -123.1747837
 },
 {
   "StoreKey": 3258,
   "AreaManagers": "Brandon, Kolby | Kristek, Dustin | Simpson, Gena | Navor (UNILV), Michael",
   "RegionalManagers": "Veronica Hernandez | Shannon Falcon RAD | Roy Anders | Veronica Mendez UNVIL",
   "Teams": "WM - Walmart/Sams PSP | Crossmark Walmart PSP | Dedicated - Walmart PSP | Unilever - DRT",
   "StoreName": "Walmart SC",
   "City": "EUGENE",
   "State": "OR",
   "Latitude": 44.0460066,
   "Longitude": -123.1693492
 },
 {
   "StoreKey": 5273,
   "AreaManagers": "Brandon, Kolby | Kristek, Dustin | Simpson, Gena",
   "RegionalManagers": "Veronica Hernandez | Shannon Falcon RAD | Roy Anders",
   "Teams": "WM - Walmart/Sams PSP | Crossmark Walmart PSP | Dedicated - Walmart PSP",
   "StoreName": "Walmart SC",
   "City": "Sequim",
   "State": "WA",
   "Latitude": 48.0800895,
   "Longitude": -123.1342053
 },
 {
   "StoreKey": 2121,
   "AreaManagers": "Brandon, Kolby | Kristek, Dustin | Simpson, Gena | Oblenis, Keith | Mosteller (UNILV), Dawn",
   "RegionalManagers": "Veronica Hernandez | Shannon Falcon RAD | Roy Anders | LT Haymon RAD WMTyson | Angela Mons Unilever DRT RAD",
   "Teams": "WM - Walmart/Sams PSP | Crossmark Walmart PSP | Dedicated - Walmart PSP | WM - DRT - Tyson | Unilever - DRT",
   "StoreName": "Walmart SC",
   "City": "Shelton",
   "State": "WA",
   "Latitude": 47.2330777,
   "Longitude": -123.1256283
 },
 {
   "StoreKey": 2538,
   "AreaManagers": "Brandon, Kolby | Kristek, Dustin | Simpson, Gena | Mathis (UNILV), Judith",
   "RegionalManagers": "Veronica Hernandez | Shannon Falcon RAD | Roy Anders | Connie Germoso UNVIL",
   "Teams": "WM - Walmart/Sams PSP | Crossmark Walmart PSP | Dedicated - Walmart PSP | Unilever - DRT",
   "StoreName": "Walmart",
   "City": "EUGENE",
   "State": "OR",
   "Latitude": 44.0906776,
   "Longitude": -123.0933551
 },
 {
   "StoreKey": 4221,
   "AreaManagers": "Brandon, Kolby | Kristek, Dustin | Simpson, Gena | Oblenis, Keith",
   "RegionalManagers": "Veronica Hernandez | Shannon Falcon RAD | Roy Anders | LT Haymon RAD WMTyson",
   "Teams": "WM - Walmart/Sams PSP | Crossmark Walmart PSP | Dedicated - Walmart PSP | WM - DRT - Tyson",
   "StoreName": "Walmart SC",
   "City": "Cornelius",
   "State": "OR",
   "Latitude": 45.5220551,
   "Longitude": -123.0697717
 },
 {
   "StoreKey": 5396,
   "AreaManagers": "Brandon, Kolby | Kristek, Dustin | Simpson, Gena | Oblenis, Keith",
   "RegionalManagers": "Veronica Hernandez | Shannon Falcon RAD | Roy Anders | LT Haymon RAD WMTyson",
   "Teams": "WM - Walmart/Sams PSP | Crossmark Walmart PSP | Dedicated - Walmart PSP | WM - DRT - Tyson",
   "StoreName": "Walmart SC",
   "City": "Albany",
   "State": "OR",
   "Latitude": 44.6271058,
   "Longitude": -123.0511609
 },
 {
   "StoreKey": 4178,
   "AreaManagers": "Brandon, Kolby | Kristek, Dustin | Simpson, Gena",
   "RegionalManagers": "Veronica Hernandez | Shannon Falcon RAD | Roy Anders",
   "Teams": "WM - Walmart/Sams PSP | Crossmark Walmart PSP | Dedicated - Walmart PSP",
   "StoreName": "Walmart NM",
   "City": "Springfield",
   "State": "OR",
   "Latitude": 44.0701701,
   "Longitude": -123.0468351
 },
 {
   "StoreKey": 2320,
   "AreaManagers": "Brandon, Kolby | Kristek, Dustin | Simpson, Gena | Caillier (UNILV), Joe",
   "RegionalManagers": "Veronica Hernandez | Shannon Falcon RAD | Roy Anders | Veronica Mendez UNVIL",
   "Teams": "WM - Walmart/Sams PSP | Crossmark Walmart PSP | Dedicated - Walmart PSP | Unilever - DRT",
   "StoreName": "Walmart SC",
   "City": "Cottage Grove",
   "State": "OR",
   "Latitude": 43.8003191,
   "Longitude": -123.0433945
 },
 {
   "StoreKey": 1920,
   "AreaManagers": "Brandon, Kolby | Kristek, Dustin | Simpson, Gena | Oblenis, Keith | Mathis (UNILV), Judith",
   "RegionalManagers": "Veronica Hernandez | Shannon Falcon RAD | Roy Anders | LT Haymon RAD WMTyson | Connie Germoso UNVIL",
   "Teams": "WM - Walmart/Sams PSP | Crossmark Walmart PSP | Dedicated - Walmart PSP | WM - DRT - Tyson | Unilever - DRT",
   "StoreName": "Walmart",
   "City": "Salem",
   "State": "OR",
   "Latitude": 44.8787726,
   "Longitude": -123.0256418
 },
 {
   "StoreKey": 5368,
   "AreaManagers": "Brandon, Kolby | Kristek, Dustin | Simpson, Gena | Oblenis, Keith",
   "RegionalManagers": "Veronica Hernandez | Shannon Falcon RAD | Roy Anders | LT Haymon RAD WMTyson",
   "Teams": "WM - Walmart/Sams PSP | Crossmark Walmart PSP | Dedicated - Walmart PSP | WM - DRT - Tyson",
   "StoreName": "Walmart SC",
   "City": "Salem ( C )",
   "State": "OR",
   "Latitude": 44.9139457,
   "Longitude": -122.9973076
 },
 {
   "StoreKey": 3239,
   "AreaManagers": "Brandon, Kolby | Kristek, Dustin | Simpson, Gena",
   "RegionalManagers": "Veronica Hernandez | Shannon Falcon RAD | Roy Anders",
   "Teams": "WM - Walmart/Sams PSP | Crossmark Walmart PSP | Dedicated - Walmart PSP",
   "StoreName": "Walmart SC",
   "City": "Springfield",
   "State": "OR",
   "Latitude": 44.0572035,
   "Longitude": -122.9878559
 },
 {
   "StoreKey": 1784,
   "AreaManagers": "Brandon, Kolby | Kristek, Dustin | Simpson, Gena | Oblenis, Keith | Yee (UNILV), Loree | Guzman (UNILV), Yolanda",
   "RegionalManagers": "Veronica Hernandez | Shannon Falcon RAD | Roy Anders | LT Haymon RAD WMTyson | Veronica Mendez UNVIL | Angela Mons Unilever DRT RAD",
   "Teams": "WM - Walmart/Sams PSP | Crossmark Walmart PSP | Dedicated - Walmart PSP | WM - DRT - Tyson | Unilever - DRT",
   "StoreName": "Walmart SC",
   "City": "Salem",
   "State": "OR",
   "Latitude": 44.9646657,
   "Longitude": -122.9874853
 },
 {
   "StoreKey": 5853,
   "AreaManagers": "Brandon, Kolby | Kristek, Dustin | Simpson, Gena | Oblenis, Keith",
   "RegionalManagers": "Veronica Hernandez | Shannon Falcon RAD | Roy Anders | LT Haymon RAD WMTyson",
   "Teams": "WM - Walmart/Sams PSP | Crossmark Walmart PSP | Dedicated - Walmart PSP | WM - DRT - Tyson",
   "StoreName": "Walmart SC",
   "City": "Longview",
   "State": "WA",
   "Latitude": 46.152919,
   "Longitude": -122.9841165
 },
 {
   "StoreKey": 2249,
   "AreaManagers": "Brandon, Kolby | Kristek, Dustin | Simpson, Gena | Cowley (UNILV), Matthew | Heffernan (UNILV), Kevin",
   "RegionalManagers": "Veronica Hernandez | Shannon Falcon RAD | Roy Anders | Connie Germoso UNVIL",
   "Teams": "WM - Walmart/Sams PSP | Crossmark Walmart PSP | Dedicated - Walmart PSP | Unilever - DRT",
   "StoreName": "Walmart SC",
   "City": "CHEHALIS",
   "State": "WA",
   "Latitude": 46.6787874,
   "Longitude": -122.9791723
 },
 {
   "StoreKey": 2469,
   "AreaManagers": "Brandon, Kolby | Kristek, Dustin | Simpson, Gena | Oblenis, Keith | Renfrow (UNILV), Kimberly",
   "RegionalManagers": "Veronica Hernandez | Shannon Falcon RAD | Roy Anders | LT Haymon RAD WMTyson | Veronica Mendez UNVIL",
   "Teams": "WM - Walmart/Sams PSP | Crossmark Walmart PSP | Dedicated - Walmart PSP | WM - DRT - Tyson | Unilever - DRT",
   "StoreName": "Walmart SC",
   "City": "Longview",
   "State": "WA",
   "Latitude": 46.1193346,
   "Longitude": -122.930109
 },
 {
   "StoreKey": 3850,
   "AreaManagers": "Brandon, Kolby | Kristek, Dustin | Simpson, Gena | Oblenis, Keith",
   "RegionalManagers": "Veronica Hernandez | Shannon Falcon RAD | Roy Anders | LT Haymon RAD WMTyson",
   "Teams": "WM - Walmart/Sams PSP | Crossmark Walmart PSP | Dedicated - Walmart PSP | WM - DRT - Tyson",
   "StoreName": "Walmart SC",
   "City": "TUMWATER",
   "State": "WA",
   "Latitude": 46.9947166,
   "Longitude": -122.9193116
 },
 {
   "StoreKey": 1775,
   "AreaManagers": "Brandon, Kolby | Kristek, Dustin | Simpson, Gena | Oblenis, Keith | Yee (UNILV), Loree",
   "RegionalManagers": "Veronica Hernandez | Shannon Falcon RAD | Roy Anders | LT Haymon RAD WMTyson | Veronica Mendez UNVIL",
   "Teams": "WM - Walmart/Sams PSP | Crossmark Walmart PSP | Dedicated - Walmart PSP | WM - DRT - Tyson | Unilever - DRT",
   "StoreName": "Walmart SC",
   "City": "Lebanon",
   "State": "OR",
   "Latitude": 44.516919,
   "Longitude": -122.9000766
 },
 {
   "StoreKey": 2590,
   "AreaManagers": "Brandon, Kolby | Kristek, Dustin | Simpson, Gena | Oblenis, Keith | Chiger UNILV, Brandon",
   "RegionalManagers": "Veronica Hernandez | Shannon Falcon RAD | Roy Anders | LT Haymon RAD WMTyson | Connie Germoso UNVIL",
   "Teams": "WM - Walmart/Sams PSP | Crossmark Walmart PSP | Dedicated - Walmart PSP | WM - DRT - Tyson | Unilever - DRT",
   "StoreName": "Walmart NM",
   "City": "Hillsboro",
   "State": "OR",
   "Latitude": 45.5157684,
   "Longitude": -122.8984024
 },
 {
   "StoreKey": 1793,
   "AreaManagers": "Brandon, Kolby | Kristek, Dustin | Simpson, Gena | Oblenis, Keith | Guzman (UNILV), Yolanda | Fredrick (UNILV), Linda",
   "RegionalManagers": "Veronica Hernandez | Shannon Falcon RAD | Roy Anders | LT Haymon RAD WMTyson | Angela Mons Unilever DRT RAD | Connie Germoso UNVIL",
   "Teams": "WM - Walmart/Sams PSP | Crossmark Walmart PSP | Dedicated - Walmart PSP | WM - DRT - Tyson | Unilever - DRT",
   "StoreName": "Walmart SC",
   "City": "Woodburn",
   "State": "OR",
   "Latitude": 45.1477804,
   "Longitude": -122.8801332
 },
 {
   "StoreKey": 5839,
   "AreaManagers": "Brandon, Kolby | ALCALA, ALEJANDRO | Simpson, Gena | Husk (UNILV), James",
   "RegionalManagers": "Veronica Hernandez | Shannon Falcon RAD | Roy Anders | Connie Germoso UNVIL",
   "Teams": "WM - Walmart/Sams PSP | Crossmark Walmart PSP | Dedicated - Walmart PSP | Unilever - DRT",
   "StoreName": "Walmart SC",
   "City": "MEDFORD",
   "State": "OR",
   "Latitude": 42.3670622,
   "Longitude": -122.8597782
 },
 {
   "StoreKey": 2069,
   "AreaManagers": "Brandon, Kolby | ALCALA, ALEJANDRO | Simpson, Gena",
   "RegionalManagers": "Veronica Hernandez | Shannon Falcon RAD | Roy Anders",
   "Teams": "WM - Walmart/Sams PSP | Crossmark Walmart PSP | Dedicated - Walmart PSP",
   "StoreName": "Walmart SC",
   "City": "MEDFORD",
   "State": "OR",
   "Latitude": 42.3104115,
   "Longitude": -122.856459
 },
 {
   "StoreKey": 5993,
   "AreaManagers": "Brandon, Kolby | Kristek, Dustin | Simpson, Gena | Oblenis, Keith",
   "RegionalManagers": "Veronica Hernandez | Shannon Falcon RAD | Roy Anders | LT Haymon RAD WMTyson",
   "Teams": "WM - Walmart/Sams PSP | Crossmark Walmart PSP | Dedicated - Walmart PSP | WM - DRT - Tyson",
   "StoreName": "Walmart NM",
   "City": "Beaverton (Cornell)",
   "State": "OR",
   "Latitude": 45.5354549,
   "Longitude": -122.8525762
 },
 {
   "StoreKey": 4176,
   "AreaManagers": "Brandon, Kolby | Kristek, Dustin | Simpson, Gena | Oblenis, Keith",
   "RegionalManagers": "Veronica Hernandez | Shannon Falcon RAD | Roy Anders | LT Haymon RAD WMTyson",
   "Teams": "WM - Walmart/Sams PSP | Crossmark Walmart PSP | Dedicated - Walmart PSP | WM - DRT - Tyson",
   "StoreName": "Walmart SC",
   "City": "SHERWOOD",
   "State": "OR",
   "Latitude": 45.3657614,
   "Longitude": -122.8335257
 },
 {
   "StoreKey": 2422,
   "AreaManagers": "Brandon, Kolby | Kristek, Dustin | Simpson, Gena | Oblenis, Keith | Heffernan (UNILV), Kevin",
   "RegionalManagers": "Veronica Hernandez | Shannon Falcon RAD | Roy Anders | LT Haymon RAD WMTyson | Connie Germoso UNVIL",
   "Teams": "WM - Walmart/Sams PSP | Crossmark Walmart PSP | Dedicated - Walmart PSP | WM - DRT - Tyson | Unilever - DRT",
   "StoreName": "Walmart",
   "City": "ST. HELENS",
   "State": "OR",
   "Latitude": 45.8473273,
   "Longitude": -122.8311512
 },
 {
   "StoreKey": 3050,
   "AreaManagers": "Brandon, Kolby | Kristek, Dustin | Simpson, Gena | Oblenis, Keith",
   "RegionalManagers": "Veronica Hernandez | Shannon Falcon RAD | Roy Anders | LT Haymon RAD WMTyson",
   "Teams": "WM - Walmart/Sams PSP | Crossmark Walmart PSP | Dedicated - Walmart PSP | WM - DRT - Tyson",
   "StoreName": "Walmart NM",
   "City": "Beaverton",
   "State": "OR",
   "Latitude": 45.4546264,
   "Longitude": -122.8280305
 },
 {
   "StoreKey": 4757,
   "AreaManagers": "Brandon, Kolby | Kristek, Dustin | Simpson, Gena | Oblenis, Keith",
   "RegionalManagers": "Veronica Hernandez | Shannon Falcon RAD | Roy Anders | LT Haymon RAD WMTyson",
   "Teams": "WM - Walmart/Sams PSP | Crossmark Walmart PSP | Dedicated - Walmart PSP | WM - DRT - Tyson",
   "StoreName": "Walmart NM",
   "City": "Lacey",
   "State": "WA",
   "Latitude": 46.9970254,
   "Longitude": -122.8186794
 },
 {
   "StoreKey": 5424,
   "AreaManagers": "Brandon, Kolby | ALCALA, ALEJANDRO | Simpson, Gena",
   "RegionalManagers": "Veronica Hernandez | Shannon Falcon RAD | Roy Anders",
   "Teams": "WM - Walmart/Sams PSP | Crossmark Walmart PSP | Dedicated - Walmart PSP",
   "StoreName": "Walmart SC",
   "City": "EAGLE POINT",
   "State": "OR",
   "Latitude": 42.4690233,
   "Longitude": -122.8138384
 },
 {
   "StoreKey": 2553,
   "AreaManagers": "Cline, Jennifer | ALCALA, ALEJANDRO | Cross, Shawn | Chiger UNILV, Brandon",
   "RegionalManagers": "Veronica Hernandez | Shannon Falcon RAD | Angel Bruce | Connie Germoso UNVIL",
   "Teams": "WM - Walmart/Sams PSP | Crossmark Walmart PSP | Dedicated - Walmart PSP | Unilever - DRT",
   "StoreName": "Walmart",
   "City": "Windsor",
   "State": "CA",
   "Latitude": 38.5286567,
   "Longitude": -122.7899351
 },
 {
   "StoreKey": 3531,
   "AreaManagers": "Brandon, Kolby | Kristek, Dustin | Simpson, Gena | Oblenis, Keith",
   "RegionalManagers": "Veronica Hernandez | Shannon Falcon RAD | Roy Anders | LT Haymon RAD WMTyson",
   "Teams": "WM - Walmart/Sams PSP | Crossmark Walmart PSP | Dedicated - Walmart PSP | WM - DRT - Tyson",
   "StoreName": "Walmart SC",
   "City": "Lacey",
   "State": "WA",
   "Latitude": 47.0604893,
   "Longitude": -122.7736681
 },
 {
   "StoreKey": 3742,
   "AreaManagers": "Brandon, Kolby | Kristek, Dustin | Simpson, Gena | Oblenis, Keith",
   "RegionalManagers": "Veronica Hernandez | Shannon Falcon RAD | Roy Anders | LT Haymon RAD WMTyson",
   "Teams": "WM - Walmart/Sams PSP | Crossmark Walmart PSP | Dedicated - Walmart PSP | WM - DRT - Tyson",
   "StoreName": "Walmart SC",
   "City": "WOODLAND",
   "State": "WA",
   "Latitude": 45.9283482,
   "Longitude": -122.7608251
 },
 {
   "StoreKey": 5935,
   "AreaManagers": "Brandon, Kolby | Kristek, Dustin | Simpson, Gena | Oblenis, Keith",
   "RegionalManagers": "Veronica Hernandez | Shannon Falcon RAD | Roy Anders | LT Haymon RAD WMTyson",
   "Teams": "WM - Walmart/Sams PSP | Crossmark Walmart PSP | Dedicated - Walmart PSP | WM - DRT - Tyson",
   "StoreName": "Walmart SC",
   "City": "Tigard",
   "State": "OR",
   "Latitude": 45.4316953,
   "Longitude": -122.7551756
 },
 {
   "StoreKey": 1755,
   "AreaManagers": "Cline, Jennifer | ALCALA, ALEJANDRO | Cross, Shawn",
   "RegionalManagers": "Veronica Hernandez | Shannon Falcon RAD | Angel Bruce",
   "Teams": "WM - Walmart/Sams PSP | Crossmark Walmart PSP | Dedicated - Walmart PSP",
   "StoreName": "Walmart",
   "City": "Rohnert Park",
   "State": "CA",
   "Latitude": 38.367463,
   "Longitude": -122.7164204
 },
 {
   "StoreKey": 2468,
   "AreaManagers": "Cline, Jennifer | ALCALA, ALEJANDRO | Cross, Shawn",
   "RegionalManagers": "Veronica Hernandez | Shannon Falcon RAD | Angel Bruce",
   "Teams": "WM - Walmart/Sams PSP | Crossmark Walmart PSP | Dedicated - Walmart PSP",
   "StoreName": "Walmart NM",
   "City": "Rohnert Park",
   "State": "CA",
   "Latitude": 38.3615516,
   "Longitude": -122.6924655
 },
 {
   "StoreKey": 2947,
   "AreaManagers": "Brandon, Kolby | Kristek, Dustin | Simpson, Gena | Oblenis, Keith",
   "RegionalManagers": "Veronica Hernandez | Shannon Falcon RAD | Roy Anders | LT Haymon RAD WMTyson",
   "Teams": "WM - Walmart/Sams PSP | Crossmark Walmart PSP | Dedicated - Walmart PSP | WM - DRT - Tyson",
   "StoreName": "Walmart",
   "City": "Vancouver",
   "State": "WA",
   "Latitude": 45.6867868,
   "Longitude": -122.6628746
 },
 {
   "StoreKey": 5272,
   "AreaManagers": "Brandon, Kolby | Kristek, Dustin | Simpson, Gena | Oblenis, Keith",
   "RegionalManagers": "Veronica Hernandez | Shannon Falcon RAD | Roy Anders | LT Haymon RAD WMTyson",
   "Teams": "WM - Walmart/Sams PSP | Crossmark Walmart PSP | Dedicated - Walmart PSP | WM - DRT - Tyson",
   "StoreName": "Walmart SC",
   "City": "Poulsbo",
   "State": "WA",
   "Latitude": 47.7569252,
   "Longitude": -122.6625787
 },
 {
   "StoreKey": 2319,
   "AreaManagers": "Brandon, Kolby | Kristek, Dustin | Simpson, Gena | Navor (UNILV), Michael",
   "RegionalManagers": "Veronica Hernandez | Shannon Falcon RAD | Roy Anders | Veronica Mendez UNVIL",
   "Teams": "WM - Walmart/Sams PSP | Crossmark Walmart PSP | Dedicated - Walmart PSP | Unilever - DRT",
   "StoreName": "Walmart",
   "City": "OAK HARBOR",
   "State": "WA",
   "Latitude": 48.2889348,
   "Longitude": -122.6622239
 },
 {
   "StoreKey": 1630,
   "AreaManagers": "Brandon, Kolby | ALCALA, ALEJANDRO | Cross, Shawn | Guzman (UNILV), Yolanda",
   "RegionalManagers": "Veronica Hernandez | Shannon Falcon RAD | Angel Bruce | Angela Mons Unilever DRT RAD",
   "Teams": "WM - Walmart/Sams PSP | Crossmark Walmart PSP | Dedicated - Walmart PSP | Unilever - DRT",
   "StoreName": "Walmart SC",
   "City": "Yreka",
   "State": "CA",
   "Latitude": 41.6987083,
   "Longitude": -122.644472
 },
 {
   "StoreKey": 5994,
   "AreaManagers": "Brandon, Kolby | Kristek, Dustin | Simpson, Gena | Oblenis, Keith",
   "RegionalManagers": "Veronica Hernandez | Shannon Falcon RAD | Roy Anders | LT Haymon RAD WMTyson",
   "Teams": "WM - Walmart/Sams PSP | Crossmark Walmart PSP | Dedicated - Walmart PSP | WM - DRT - Tyson",
   "StoreName": "Walmart NM",
   "City": "West Linn",
   "State": "OR",
   "Latitude": 45.3863342,
   "Longitude": -122.6420116
 },
 {
   "StoreKey": 3145,
   "AreaManagers": "Brandon, Kolby | Kristek, Dustin | Simpson, Gena | Oblenis, Keith",
   "RegionalManagers": "Veronica Hernandez | Shannon Falcon RAD | Roy Anders | LT Haymon RAD WMTyson",
   "Teams": "WM - Walmart/Sams PSP | Crossmark Walmart PSP | Dedicated - Walmart PSP | WM - DRT - Tyson",
   "StoreName": "Walmart NM",
   "City": "Vancouver",
   "State": "WA",
   "Latitude": 45.6367845,
   "Longitude": -122.6408897
 },
 {
   "StoreKey": 2317,
   "AreaManagers": "Brandon, Kolby | Kristek, Dustin | Simpson, Gena | Oblenis, Keith | Ruiz (UNILV), Pedro | Mathis (UNILV), Judith",
   "RegionalManagers": "Veronica Hernandez | Shannon Falcon RAD | Roy Anders | LT Haymon RAD WMTyson | Angela Mons Unilever DRT RAD | Connie Germoso UNVIL",
   "Teams": "WM - Walmart/Sams PSP | Crossmark Walmart PSP | Dedicated - Walmart PSP | WM - DRT - Tyson | Unilever - DRT",
   "StoreName": "Walmart",
   "City": "Bremerton",
   "State": "WA",
   "Latitude": 47.624908,
   "Longitude": -122.6327619
 },
 {
   "StoreKey": 2325,
   "AreaManagers": "Brandon, Kolby | Kristek, Dustin | Simpson, Gena | Oblenis, Keith | Heffernan (UNILV), Kevin",
   "RegionalManagers": "Veronica Hernandez | Shannon Falcon RAD | Roy Anders | LT Haymon RAD WMTyson | Connie Germoso UNVIL",
   "Teams": "WM - Walmart/Sams PSP | Crossmark Walmart PSP | Dedicated - Walmart PSP | WM - DRT - Tyson | Unilever - DRT",
   "StoreName": "Walmart SC",
   "City": "PORT ORCHARD",
   "State": "WA",
   "Latitude": 47.516697,
   "Longitude": -122.6275633
 },
 {
   "StoreKey": 3144,
   "AreaManagers": "Brandon, Kolby | Kristek, Dustin | Simpson, Gena | Oblenis, Keith",
   "RegionalManagers": "Veronica Hernandez | Shannon Falcon RAD | Roy Anders | LT Haymon RAD WMTyson",
   "Teams": "WM - Walmart/Sams PSP | Crossmark Walmart PSP | Dedicated - Walmart PSP | WM - DRT - Tyson",
   "StoreName": "Walmart NM",
   "City": "MILWAUKIE",
   "State": "OR",
   "Latitude": 45.410471,
   "Longitude": -122.6260061
 },
 {
   "StoreKey": 1979,
   "AreaManagers": "Cline, Jennifer | ALCALA, ALEJANDRO | Cross, Shawn | Korn (UNILV), Laurie | Gianotti (UNILV), Deborah",
   "RegionalManagers": "Veronica Hernandez | Shannon Falcon RAD | Angel Bruce | Veronica Mendez UNVIL",
   "Teams": "WM - Walmart/Sams PSP | Crossmark Walmart PSP | Dedicated - Walmart PSP | Unilever - DRT",
   "StoreName": "Walmart",
   "City": "CLEARLAKE",
   "State": "CA",
   "Latitude": 38.9311828,
   "Longitude": -122.6160641
 },
 {
   "StoreKey": 3705,
   "AreaManagers": "Brandon, Kolby | Kristek, Dustin | Simpson, Gena | Oblenis, Keith",
   "RegionalManagers": "Veronica Hernandez | Shannon Falcon RAD | Roy Anders | LT Haymon RAD WMTyson",
   "Teams": "WM - Walmart/Sams PSP | Crossmark Walmart PSP | Dedicated - Walmart PSP | WM - DRT - Tyson",
   "StoreName": "Walmart SC",
   "City": "YELM",
   "State": "WA",
   "Latitude": 46.9345796,
   "Longitude": -122.5775729
 },
 {
   "StoreKey": 5440,
   "AreaManagers": "Brandon, Kolby | Kristek, Dustin | Simpson, Gena | Oblenis, Keith",
   "RegionalManagers": "Veronica Hernandez | Shannon Falcon RAD | Roy Anders | LT Haymon RAD WMTyson",
   "Teams": "WM - Walmart/Sams PSP | Crossmark Walmart PSP | Dedicated - Walmart PSP | WM - DRT - Tyson",
   "StoreName": "Walmart",
   "City": "Happy Valley",
   "State": "OR",
   "Latitude": 45.4505558,
   "Longitude": -122.5755149
 },
 {
   "StoreKey": 2550,
   "AreaManagers": "Brandon, Kolby | Kristek, Dustin | Simpson, Gena | Oblenis, Keith | Yee (UNILV), Loree",
   "RegionalManagers": "Veronica Hernandez | Shannon Falcon RAD | Roy Anders | LT Haymon RAD WMTyson | Veronica Mendez UNVIL",
   "Teams": "WM - Walmart/Sams PSP | Crossmark Walmart PSP | Dedicated - Walmart PSP | WM - DRT - Tyson | Unilever - DRT",
   "StoreName": "Walmart SC",
   "City": "Vancouver",
   "State": "WA",
   "Latitude": 45.6237441,
   "Longitude": -122.5623905
 },
 {
   "StoreKey": 5929,
   "AreaManagers": "Brandon, Kolby | Kristek, Dustin | Simpson, Gena | Oblenis, Keith",
   "RegionalManagers": "Veronica Hernandez | Shannon Falcon RAD | Roy Anders | LT Haymon RAD WMTyson",
   "Teams": "WM - Walmart/Sams PSP | Crossmark Walmart PSP | Dedicated - Walmart PSP | WM - DRT - Tyson",
   "StoreName": "Walmart SC",
   "City": "Battle Ground",
   "State": "WA",
   "Latitude": 45.772401,
   "Longitude": -122.5494611
 },
 {
   "StoreKey": 5461,
   "AreaManagers": "Brandon, Kolby | Kristek, Dustin | Simpson, Gena | Oblenis, Keith",
   "RegionalManagers": "Veronica Hernandez | Shannon Falcon RAD | Roy Anders | LT Haymon RAD WMTyson",
   "Teams": "WM - Walmart/Sams PSP | Crossmark Walmart PSP | Dedicated - Walmart PSP | WM - DRT - Tyson",
   "StoreName": "Walmart SC",
   "City": "Vancouver",
   "State": "WA",
   "Latitude": 45.6693634,
   "Longitude": -122.5234369
 },
 {
   "StoreKey": 3537,
   "AreaManagers": "Brandon, Kolby | Kristek, Dustin | Simpson, Gena | Oblenis, Keith",
   "RegionalManagers": "Veronica Hernandez | Shannon Falcon RAD | Roy Anders | LT Haymon RAD WMTyson",
   "Teams": "WM - Walmart/Sams PSP | Crossmark Walmart PSP | Dedicated - Walmart PSP | WM - DRT - Tyson",
   "StoreName": "Walmart SC",
   "City": "Lakewood",
   "State": "WA",
   "Latitude": 47.1938549,
   "Longitude": -122.5168776
 },
 {
   "StoreKey": 2450,
   "AreaManagers": "Toriumi, Lisa | Kristek, Dustin | Simpson, Gena | Ott (UNILV), Jan",
   "RegionalManagers": " | Shannon Falcon RAD | Roy Anders | Angela Mons Unilever DRT RAD",
   "Teams": "WM - Walmart/Sams PSP | Crossmark Walmart PSP | Dedicated - Walmart PSP | Unilever - DRT",
   "StoreName": "Walmart",
   "City": "Bellingham",
   "State": "WA",
   "Latitude": 48.801535,
   "Longitude": -122.4818906
 },
 {
   "StoreKey": 5462,
   "AreaManagers": "Brandon, Kolby | Kristek, Dustin | Simpson, Gena | Oblenis, Keith",
   "RegionalManagers": "Veronica Hernandez | Shannon Falcon RAD | Roy Anders | LT Haymon RAD WMTyson",
   "Teams": "WM - Walmart/Sams PSP | Crossmark Walmart PSP | Dedicated - Walmart PSP | WM - DRT - Tyson",
   "StoreName": "Walmart SC",
   "City": "Vancouver (SE)",
   "State": "WA",
   "Latitude": 45.6182978,
   "Longitude": -122.4800333
 },
 {
   "StoreKey": 4137,
   "AreaManagers": "Brandon, Kolby | Kristek, Dustin | Simpson, Gena | Oblenis, Keith",
   "RegionalManagers": "Veronica Hernandez | Shannon Falcon RAD | Roy Anders | LT Haymon RAD WMTyson",
   "Teams": "WM - Walmart/Sams PSP | Crossmark Walmart PSP | Dedicated - Walmart PSP | WM - DRT - Tyson",
   "StoreName": "Walmart SC",
   "City": "Tacoma",
   "State": "WA",
   "Latitude": 47.2400228,
   "Longitude": -122.4786318
 },
 {
   "StoreKey": 5627,
   "AreaManagers": "Brandon, Kolby | Kristek, Dustin | Simpson, Gena | Oblenis, Keith",
   "RegionalManagers": "Veronica Hernandez | Shannon Falcon RAD | Roy Anders | LT Haymon RAD WMTyson",
   "Teams": "WM - Walmart/Sams PSP | Crossmark Walmart PSP | Dedicated - Walmart PSP | WM - DRT - Tyson",
   "StoreName": "Walmart NM",
   "City": "Gresham",
   "State": "OR",
   "Latitude": 45.4887945,
   "Longitude": -122.4721696
 },
 {
   "StoreKey": 2927,
   "AreaManagers": "Brandon, Kolby | Kristek, Dustin | Simpson, Gena | Oblenis, Keith",
   "RegionalManagers": "Veronica Hernandez | Shannon Falcon RAD | Roy Anders | LT Haymon RAD WMTyson",
   "Teams": "WM - Walmart/Sams PSP | Crossmark Walmart PSP | Dedicated - Walmart PSP | WM - DRT - Tyson",
   "StoreName": "Walmart SC",
   "City": "Wood Village",
   "State": "OR",
   "Latitude": 45.5411671,
   "Longitude": -122.420836
 },
 {
   "StoreKey": 3218,
   "AreaManagers": "Brandon, Kolby | Kristek, Dustin | Simpson, Gena | Oblenis, Keith | Navor (UNILV), Michael",
   "RegionalManagers": "Veronica Hernandez | Shannon Falcon RAD | Roy Anders | LT Haymon RAD WMTyson | Veronica Mendez UNVIL",
   "Teams": "WM - Walmart/Sams PSP | Crossmark Walmart PSP | Dedicated - Walmart PSP | WM - DRT - Tyson | Unilever - DRT",
   "StoreName": "Walmart SC",
   "City": "Spanaway",
   "State": "WA",
   "Latitude": 47.0740512,
   "Longitude": -122.4192483
 },
 {
   "StoreKey": 3178,
   "AreaManagers": "Brandon, Kolby | Kristek, Dustin | Simpson, Gena | Oblenis, Keith | Shannon (UNILV), Kimberly",
   "RegionalManagers": "Veronica Hernandez | Shannon Falcon RAD | Roy Anders | LT Haymon RAD WMTyson | Angela Mons Unilever DRT RAD",
   "Teams": "WM - Walmart/Sams PSP | Crossmark Walmart PSP | Dedicated - Walmart PSP | WM - DRT - Tyson | Unilever - DRT",
   "StoreName": "Walmart NM",
   "City": "Gresham",
   "State": "OR",
   "Latitude": 45.49306,
   "Longitude": -122.4076082
 },
 {
   "StoreKey": 70400352,
   "AreaManagers": "Renfrow (UNILV), Kimberly",
   "RegionalManagers": "Veronica Mendez UNVIL",
   "Teams": "Unilever - DRT",
   "StoreName": "Foodsco",
   "City": "RICHMOND",
   "State": "CA",
   "Latitude": 37.9349481,
   "Longitude": -122.357981
 },
 {
   "StoreKey": 2596,
   "AreaManagers": "Toriumi, Lisa | Kristek, Dustin | Simpson, Gena | Maino (UNILV), Andrew",
   "RegionalManagers": " | Shannon Falcon RAD | Roy Anders | Connie Germoso UNVIL",
   "Teams": "WM - Walmart/Sams PSP | Crossmark Walmart PSP | Dedicated - Walmart PSP | Unilever - DRT",
   "StoreName": "Walmart SC",
   "City": "Mount Vernon",
   "State": "WA",
   "Latitude": 48.4412703,
   "Longitude": -122.3462487
 },
 {
   "StoreKey": 2537,
   "AreaManagers": "Brandon, Kolby | ALCALA, ALEJANDRO | Cross, Shawn | Fredrick (UNILV), Linda | Maino (UNILV), Andrew",
   "RegionalManagers": "Veronica Hernandez | Shannon Falcon RAD | Angel Bruce | Connie Germoso UNVIL",
   "Teams": "WM - Walmart/Sams PSP | Crossmark Walmart PSP | Dedicated - Walmart PSP | Unilever - DRT",
   "StoreName": "Walmart SC",
   "City": "Redding",
   "State": "CA",
   "Latitude": 40.5840847,
   "Longitude": -122.3432773
 },
 {
   "StoreKey": 3455,
   "AreaManagers": "Renfrow (UNILV), Kimberly | Cline, Jennifer | ALCALA, ALEJANDRO | Cross, Shawn | Shannon (UNILV), Kimberly",
   "RegionalManagers": "Veronica Mendez UNVIL | Veronica Hernandez | Shannon Falcon RAD | Angel Bruce | Angela Mons Unilever DRT RAD",
   "Teams": "Unilever - DRT | WM - Walmart/Sams PSP | Crossmark Walmart PSP | Dedicated - Walmart PSP",
   "StoreName": "Walmart",
   "City": "RICHMOND",
   "State": "CA",
   "Latitude": 37.9799679,
   "Longitude": -122.3283777
 },
 {
   "StoreKey": 1507,
   "AreaManagers": "Renfrow (UNILV), Kimberly | Teich, Douglas | Fullerton, Dulcie | STOUT, CHRISTINE | Stull, Monica | Guzman (UNILV), Yolanda",
   "RegionalManagers": "Veronica Mendez UNVIL | Jonathan Shockey RAD | Shannon Falcon RAD | Angel Bruce | Angela Mons Unilever DRT RAD",
   "Teams": "Unilever - DRT | WM - Walmart/Sams PSP | Crossmark Walmart PSP | Dedicated - Walmart PSP",
   "StoreName": "Target",
   "City": "RICHMOND",
   "State": "CA",
   "Latitude": 37.9319064,
   "Longitude": -122.3280485
 },
 {
   "StoreKey": 2940,
   "AreaManagers": "Renfrow (UNILV), Kimberly | Gillett, Christina | SETTLE, MELINDA | Burns, Linn",
   "RegionalManagers": "Veronica Mendez UNVIL | Dani Preslicka | Shawn Massey | Sherry Blankenhorn",
   "Teams": "Unilever - DRT | WM - Walmart/Sams PSP | Crossmark Walmart PSP | Dedicated - Walmart PSP",
   "StoreName": "SAFEWAY",
   "City": "El Cerrito",
   "State": "CA",
   "Latitude": 37.9224299,
   "Longitude": -122.3157607
 },
 {
   "StoreKey": 3794,
   "AreaManagers": "Brandon, Kolby | Kristek, Dustin | Simpson, Gena | Oblenis, Keith",
   "RegionalManagers": "Veronica Hernandez | Shannon Falcon RAD | Roy Anders | LT Haymon RAD WMTyson",
   "Teams": "WM - Walmart/Sams PSP | Crossmark Walmart PSP | Dedicated - Walmart PSP | WM - DRT - Tyson",
   "StoreName": "Walmart SC",
   "City": "Federal Way",
   "State": "WA",
   "Latitude": 47.2923545,
   "Longitude": -122.3103255
 },
 {
   "StoreKey": 737,
   "AreaManagers": "Renfrow (UNILV), Kimberly | Caillier (UNILV), Joe | McGinnis (UNILV), John | Ramirez, Sandra | GIESKE, DAWN | Whaley, Laura | Hayes, Donavon | Ott (UNILV), Jan | Ruiz (UNILV), Pedro | Heffernan (UNILV), Kevin",
   "RegionalManagers": "Veronica Mendez UNVIL | Angela Mons Unilever DRT RAD | Brian Schubert | Elizabeth Sinclair | Angel Bruce | LT Haymon RAD WMTyson | Connie Germoso UNVIL",
   "Teams": "Unilever - DRT | WM - Walmart/Sams PSP | Crossmark Walmart PSP | Dedicated - Walmart PSP | WM - DRT - Tyson",
   "StoreName": "Target",
   "City": "Pinole",
   "State": "CA",
   "Latitude": 37.987427,
   "Longitude": -122.309629
 },
 {
   "StoreKey": 1926,
   "AreaManagers": "Renfrow (UNILV), Kimberly | Mathis (UNILV), Judith | Torres (UNILV), Natalie | Vadala, Laura | BURBANK, KORI | Simko, Linda",
   "RegionalManagers": "Veronica Mendez UNVIL | Connie Germoso UNVIL | Alicia Fiechter | Elizabeth Sinclair | Roy Anders",
   "Teams": "Unilever - DRT | WM - Walmart/Sams PSP | Crossmark Walmart PSP | Dedicated - Walmart PSP",
   "StoreName": "Target",
   "City": "Albany",
   "State": "CA",
   "Latitude": 37.8827713,
   "Longitude": -122.3066769
 },
 {
   "StoreKey": 5678,
   "AreaManagers": "Brandon, Kolby | Kristek, Dustin | Simpson, Gena | Oblenis, Keith",
   "RegionalManagers": "Veronica Hernandez | Shannon Falcon RAD | Roy Anders | LT Haymon RAD WMTyson",
   "Teams": "WM - Walmart/Sams PSP | Crossmark Walmart PSP | Dedicated - Walmart PSP | WM - DRT - Tyson",
   "StoreName": "Walmart NM",
   "City": "Lynnwood",
   "State": "WA",
   "Latitude": 47.8422728,
   "Longitude": -122.2994669
 },
 {
   "StoreKey": 3525,
   "AreaManagers": "Brandon, Kolby | Kristek, Dustin | Simpson, Gena | Oblenis, Keith",
   "RegionalManagers": "Veronica Hernandez | Shannon Falcon RAD | Roy Anders | LT Haymon RAD WMTyson",
   "Teams": "WM - Walmart/Sams PSP | Crossmark Walmart PSP | Dedicated - Walmart PSP | WM - DRT - Tyson",
   "StoreName": "Walmart SC",
   "City": "Puyallup",
   "State": "WA",
   "Latitude": 47.1058041,
   "Longitude": -122.2972905
 },
 {
   "StoreKey": 2767,
   "AreaManagers": "Renfrow (UNILV), Kimberly | Korn (UNILV), Laurie | Lagos, Lisa | CHEATOM, REGINA | Marrone, Andrew A | Clark, Debbie | Oblenis, Keith",
   "RegionalManagers": "Veronica Mendez UNVIL | Veronica Hernandez | Shannon Falcon RAD | James Johnson | Angel Bruce | LT Haymon RAD WMTyson",
   "Teams": "Unilever - DRT | WM - Walmart/Sams PSP | Crossmark Walmart PSP | WM - DRT - P&G | Dedicated - Walmart PSP | WM - DRT - Tyson",
   "StoreName": "Target",
   "City": "EMERYVILLE",
   "State": "CA",
   "Latitude": 37.8284132,
   "Longitude": -122.2898465
 },
 {
   "StoreKey": 5133,
   "AreaManagers": "Brandon, Kolby | ALCALA, ALEJANDRO | Cross, Shawn",
   "RegionalManagers": "Veronica Hernandez | Shannon Falcon RAD | Angel Bruce",
   "Teams": "WM - Walmart/Sams PSP | Crossmark Walmart PSP | Dedicated - Walmart PSP",
   "StoreName": "Walmart SC",
   "City": "Anderson",
   "State": "CA",
   "Latitude": 40.4314957,
   "Longitude": -122.2894988
 },
 {
   "StoreKey": 2403,
   "AreaManagers": "Brandon, Kolby | Kristek, Dustin | Simpson, Gena | Oblenis, Keith",
   "RegionalManagers": "Veronica Hernandez | Shannon Falcon RAD | Roy Anders | LT Haymon RAD WMTyson",
   "Teams": "WM - Walmart/Sams PSP | Crossmark Walmart PSP | Dedicated - Walmart PSP | WM - DRT - Tyson",
   "StoreName": "Walmart SC",
   "City": "Puyallup",
   "State": "WA",
   "Latitude": 47.1610458,
   "Longitude": -122.2888112
 },
 {
   "StoreKey": 676,
   "AreaManagers": "Renfrow (UNILV), Kimberly | Korn (UNILV), Laurie | McGinnis (UNILV), John | Graves, David | JOCHIMSEN, DEBORAH | Whaley, Laura | Ruiz (UNILV), Pedro",
   "RegionalManagers": "Veronica Mendez UNVIL | Angela Mons Unilever DRT RAD | Brian Schubert | Elizabeth Sinclair | Angel Bruce",
   "Teams": "Unilever - DRT | WM - Walmart/Sams PSP | Crossmark Walmart PSP | Dedicated - Walmart PSP",
   "StoreName": "SAFEWAY",
   "City": "Berkeley",
   "State": "CA",
   "Latitude": 37.8902696,
   "Longitude": -122.286906
 },
 {
   "StoreKey": 2925,
   "AreaManagers": "Renfrow (UNILV), Kimberly | Cline, Jennifer | ALCALA, ALEJANDRO | Cross, Shawn",
   "RegionalManagers": "Veronica Mendez UNVIL | Veronica Hernandez | Shannon Falcon RAD | Angel Bruce",
   "Teams": "Unilever - DRT | WM - Walmart/Sams PSP | Crossmark Walmart PSP | Dedicated - Walmart PSP",
   "StoreName": "Walmart SC",
   "City": "NAPA",
   "State": "CA",
   "Latitude": 38.3089069,
   "Longitude": -122.2832399
 },
 {
   "StoreKey": 3281,
   "AreaManagers": "Renfrow (UNILV), Kimberly | Husk (UNILV), James | Vadala, Laura | RUPP, DAMITA | MacDougall, David",
   "RegionalManagers": "Veronica Mendez UNVIL | Connie Germoso UNVIL | Alicia Fiechter | Elizabeth Sinclair | Roy Anders",
   "Teams": "Unilever - DRT | WM - Walmart/Sams PSP | Crossmark Walmart PSP | Dedicated - Walmart PSP",
   "StoreName": "SAFEWAY",
   "City": "Alameda",
   "State": "CA",
   "Latitude": 37.7854974,
   "Longitude": -122.2805679
 },
 {
   "StoreKey": 2829,
   "AreaManagers": "Renfrow (UNILV), Kimberly | Fredrick (UNILV), Linda",
   "RegionalManagers": "Veronica Mendez UNVIL | Connie Germoso UNVIL",
   "Teams": "Unilever - DRT",
   "StoreName": "Target",
   "City": "Alameda",
   "State": "CA",
   "Latitude": 37.7887583,
   "Longitude": -122.2802313
 },
 {
   "StoreKey": 3125,
   "AreaManagers": "Renfrow (UNILV), Kimberly",
   "RegionalManagers": "Veronica Mendez UNVIL",
   "Teams": "Unilever - DRT",
   "StoreName": "PAK N SAVE",
   "City": "EMERYVILLE",
   "State": "CA",
   "Latitude": 37.8293981,
   "Longitude": -122.2799636
 },
 {
   "StoreKey": 691,
   "AreaManagers": "Renfrow (UNILV), Kimberly | Mosteller (UNILV), Dawn | Tripoli, Michael | WOOD, JONATHAN | Salvage, Sonya | Varnell, Jill | Anthony (UNILV), Pam",
   "RegionalManagers": "Veronica Mendez UNVIL | Angela Mons Unilever DRT RAD | Raina Rogge | Shawn Massey | Sherry Blankenhorn | LT Haymon RAD WMTyson",
   "Teams": "Unilever - DRT | WM - Walmart/Sams PSP | Crossmark Walmart PSP | Dedicated - Walmart PSP | WM - DRT - Tyson",
   "StoreName": "SAFEWAY",
   "City": "Berkeley",
   "State": "CA",
   "Latitude": 37.8807907,
   "Longitude": -122.2700198
 },
 {
   "StoreKey": 5609,
   "AreaManagers": "Cline, Jennifer | ALCALA, ALEJANDRO | Cross, Shawn | Oblenis, Keith",
   "RegionalManagers": "Veronica Hernandez | Shannon Falcon RAD | Angel Bruce | LT Haymon RAD WMTyson",
   "Teams": "WM - Walmart/Sams PSP | Crossmark Walmart PSP | Dedicated - Walmart PSP | WM - DRT - Tyson",
   "StoreName": "Walmart NM",
   "City": "VALLEJO",
   "State": "CA",
   "Latitude": 38.1264491,
   "Longitude": -122.2542222
 },
 {
   "StoreKey": 2594,
   "AreaManagers": "Brandon, Kolby | Kristek, Dustin | Simpson, Gena | Cowley (UNILV), Matthew",
   "RegionalManagers": "Veronica Hernandez | Shannon Falcon RAD | Roy Anders | Connie Germoso UNVIL",
   "Teams": "WM - Walmart/Sams PSP | Crossmark Walmart PSP | Dedicated - Walmart PSP | Unilever - DRT",
   "StoreName": "Walmart",
   "City": "Lynnwood",
   "State": "WA",
   "Latitude": 47.8485597,
   "Longitude": -122.253534
 },
 {
   "StoreKey": 1651,
   "AreaManagers": "Cline, Jennifer | ALCALA, ALEJANDRO | Cross, Shawn | Guzman (UNILV), Yolanda",
   "RegionalManagers": "Veronica Hernandez | Shannon Falcon RAD | Angel Bruce | Angela Mons Unilever DRT RAD",
   "Teams": "WM - Walmart/Sams PSP | Crossmark Walmart PSP | Dedicated - Walmart PSP | Unilever - DRT",
   "StoreName": "Walmart SC",
   "City": "American Canyon",
   "State": "CA",
   "Latitude": 38.1831534,
   "Longitude": -122.2532303
 },
 {
   "StoreKey": 2870,
   "AreaManagers": "Renfrow (UNILV), Kimberly | Cowley (UNILV), Matthew | Bentley, Leslie | VADALA, JENNY | Cunningham, Omar",
   "RegionalManagers": "Veronica Mendez UNVIL | Connie Germoso UNVIL | Raina Rogge | Shawn Massey | Angel Bruce",
   "Teams": "Unilever - DRT | WM - Walmart/Sams PSP | Crossmark Walmart PSP | Dedicated - Walmart PSP",
   "StoreName": "SAFEWAY",
   "City": "OAKLAND",
   "State": "CA",
   "Latitude": 37.8504868,
   "Longitude": -122.2522849
 },
 {
   "StoreKey": 2708,
   "AreaManagers": "Renfrow (UNILV), Kimberly | Nelson, Kellie | WIBOWO, JILL | Marrone, Andrew A | Nguyen, Vu | Oblenis, Keith",
   "RegionalManagers": "Veronica Mendez UNVIL | Veronica Hernandez |  | James Johnson | Angel Bruce | LT Haymon RAD WMTyson",
   "Teams": "Unilever - DRT | WM - Walmart/Sams PSP | Crossmark Walmart PSP | WM - DRT - P&G | Dedicated - Walmart PSP | WM - DRT - Tyson",
   "StoreName": "SAFEWAY",
   "City": "Alameda",
   "State": "CA",
   "Latitude": 37.7572555,
   "Longitude": -122.2508336
 },
 {
   "StoreKey": 3132,
   "AreaManagers": "Renfrow (UNILV), Kimberly | Navor (UNILV), Michael | Nelson, Kellie | WIBOWO, JILL | Nguyen, Vu | Oblenis, Keith",
   "RegionalManagers": "Veronica Mendez UNVIL | Veronica Hernandez |  | Angel Bruce | LT Haymon RAD WMTyson",
   "Teams": "Unilever - DRT | WM - Walmart/Sams PSP | Crossmark Walmart PSP | Dedicated - Walmart PSP | WM - DRT - Tyson",
   "StoreName": "SAFEWAY",
   "City": "OAKLAND",
   "State": "CA",
   "Latitude": 37.8348736,
   "Longitude": -122.2486188
 },
 {
   "StoreKey": 1119,
   "AreaManagers": "Renfrow (UNILV), Kimberly | Mosteller (UNILV), Dawn | Porter, Trena | Ruiz (UNILV), Pedro | Etingoff, Beth | ALLENDEZ, SHUNKO | Cortes, Michael",
   "RegionalManagers": "Veronica Mendez UNVIL | Angela Mons Unilever DRT RAD |  | Raina Rogge | Shawn Massey | Sherry Blankenhorn",
   "Teams": "Unilever - DRT | WM - Walmart/Sams PSP | Crossmark Walmart PSP | Dedicated - Walmart PSP",
   "StoreName": "SAFEWAY",
   "City": "OAKLAND",
   "State": "CA",
   "Latitude": 37.8172619,
   "Longitude": -122.2454622
 },
 {
   "StoreKey": 2385,
   "AreaManagers": "Brandon, Kolby | Kristek, Dustin | Simpson, Gena | Oblenis, Keith | Husk (UNILV), James",
   "RegionalManagers": "Veronica Hernandez | Shannon Falcon RAD | Roy Anders | LT Haymon RAD WMTyson | Connie Germoso UNVIL",
   "Teams": "WM - Walmart/Sams PSP | Crossmark Walmart PSP | Dedicated - Walmart PSP | WM - DRT - Tyson | Unilever - DRT",
   "StoreName": "Walmart SC",
   "City": "Auburn",
   "State": "WA",
   "Latitude": 47.3017207,
   "Longitude": -122.240719
 },
 {
   "StoreKey": 951,
   "AreaManagers": "Renfrow (UNILV), Kimberly | Caillier (UNILV), Joe | Martinez, Roberta | DART, TREVOR | Russell, Rebecca | Ott (UNILV), Jan",
   "RegionalManagers": "Veronica Mendez UNVIL | Dani Preslicka | Shawn Massey | Sherry Blankenhorn | Angela Mons Unilever DRT RAD",
   "Teams": "Unilever - DRT | WM - Walmart/Sams PSP | Crossmark Walmart PSP | Dedicated - Walmart PSP",
   "StoreName": "SAFEWAY",
   "City": "Alameda",
   "State": "CA",
   "Latitude": 37.7379044,
   "Longitude": -122.2394204
 },
 {
   "StoreKey": 1608,
   "AreaManagers": "Cline, Jennifer | ALCALA, ALEJANDRO | Cross, Shawn | Fredrick (UNILV), Linda",
   "RegionalManagers": "Veronica Hernandez | Shannon Falcon RAD | Angel Bruce | Connie Germoso UNVIL",
   "Teams": "WM - Walmart/Sams PSP | Crossmark Walmart PSP | Dedicated - Walmart PSP | Unilever - DRT",
   "StoreName": "Walmart",
   "City": "RED BLUFF",
   "State": "CA",
   "Latitude": 40.1628168,
   "Longitude": -122.2345451
 },
 {
   "StoreKey": 2516,
   "AreaManagers": "Brandon, Kolby | Kristek, Dustin | Simpson, Gena | Oblenis, Keith | Yee (UNILV), Loree",
   "RegionalManagers": "Veronica Hernandez | Shannon Falcon RAD | Roy Anders | LT Haymon RAD WMTyson | Veronica Mendez UNVIL",
   "Teams": "WM - Walmart/Sams PSP | Crossmark Walmart PSP | Dedicated - Walmart PSP | WM - DRT - Tyson | Unilever - DRT",
   "StoreName": "Walmart SC",
   "City": "Renton",
   "State": "WA",
   "Latitude": 47.4719897,
   "Longitude": -122.2209578
 },
 {
   "StoreKey": 2053,
   "AreaManagers": "Cline, Jennifer | ALCALA, ALEJANDRO | Cross, Shawn | Navor (UNILV), Michael",
   "RegionalManagers": "Veronica Hernandez | Shannon Falcon RAD | Angel Bruce | Veronica Mendez UNVIL",
   "Teams": "WM - Walmart/Sams PSP | Crossmark Walmart PSP | Dedicated - Walmart PSP | Unilever - DRT",
   "StoreName": "Walmart SC",
   "City": "Willows",
   "State": "CA",
   "Latitude": 39.5256389,
   "Longitude": -122.2177428
 },
 {
   "StoreKey": 908,
   "AreaManagers": "Renfrow (UNILV), Kimberly | Guzman (UNILV), Yolanda | Specht WM RMM, Wolf | ERVIN, KIMBERLY | Kucera RMM WM DRT P&G, Cherise | Marcum, Joel | Phillips, Patricia",
   "RegionalManagers": "Veronica Mendez UNVIL | Angela Mons Unilever DRT RAD | Raina Rogge | Shawn Massey | James Johnson | Sherry Blankenhorn | LT Haymon RAD WMTyson",
   "Teams": "Unilever - DRT | WM - Walmart/Sams PSP | Crossmark Walmart PSP | WM - DRT - P&G | Dedicated - Walmart PSP | WM - DRT - Tyson",
   "StoreName": "SAFEWAY",
   "City": "OAKLAND",
   "State": "CA",
   "Latitude": 37.801384,
   "Longitude": -122.2155883
 },
 {
   "StoreKey": 3053,
   "AreaManagers": "Toriumi, Lisa | Kristek, Dustin | Simpson, Gena | Shannon (UNILV), Kimberly",
   "RegionalManagers": " | Shannon Falcon RAD | Roy Anders | Angela Mons Unilever DRT RAD",
   "Teams": "WM - Walmart/Sams PSP | Crossmark Walmart PSP | Dedicated - Walmart PSP | Unilever - DRT",
   "StoreName": "Walmart SC",
   "City": "EVERETT",
   "State": "WA",
   "Latitude": 47.9144128,
   "Longitude": -122.2135326
 },
 {
   "StoreKey": 210,
   "AreaManagers": "Renfrow (UNILV), Kimberly | Navor (UNILV), Michael | Razon, Suzanne | STOUT, CHRISTINE | Burns, Linn | Teich, Douglas | Anthony (UNILV), Pam | Mosteller (UNILV), Dawn | Torres (UNILV), Natalie",
   "RegionalManagers": "Veronica Mendez UNVIL | Dani Preslicka | Shannon Falcon RAD | Sherry Blankenhorn | Angela Mons Unilever DRT RAD | Connie Germoso UNVIL",
   "Teams": "Unilever - DRT | WM - Walmart/Sams PSP | Crossmark Walmart PSP | Dedicated - Walmart PSP",
   "StoreName": "Cardenas Market",
   "City": "OAKLAND",
   "State": "CA",
   "Latitude": 37.7733431,
   "Longitude": -122.2121296
 },
 {
   "StoreKey": 654,
   "AreaManagers": "Renfrow (UNILV), Kimberly | Guzman (UNILV), Yolanda | Heffernan (UNILV), Kevin",
   "RegionalManagers": "Veronica Mendez UNVIL | Angela Mons Unilever DRT RAD | Connie Germoso UNVIL",
   "Teams": "Unilever - DRT",
   "StoreName": "SAFEWAY",
   "City": "OAKLAND",
   "State": "CA",
   "Latitude": 37.825454,
   "Longitude": -122.2089862
 },
 {
   "StoreKey": 967,
   "AreaManagers": "Renfrow (UNILV), Kimberly | Porter, Trena | Guzman (UNILV), Yolanda | Etingoff, Beth | ERVIN, KIMBERLY | Marcum, Joel | Phillips, Patricia",
   "RegionalManagers": "Veronica Mendez UNVIL |  | Angela Mons Unilever DRT RAD | Raina Rogge | Shawn Massey | Sherry Blankenhorn | LT Haymon RAD WMTyson",
   "Teams": "Unilever - DRT | WM - Walmart/Sams PSP | Crossmark Walmart PSP | Dedicated - Walmart PSP | WM - DRT - Tyson",
   "StoreName": "SAFEWAY",
   "City": "ORINDA",
   "State": "CA",
   "Latitude": 37.8838107,
   "Longitude": -122.1909871
 },
 {
   "StoreKey": 2595,
   "AreaManagers": "Toriumi, Lisa | Kristek, Dustin | Simpson, Gena",
   "RegionalManagers": " | Shannon Falcon RAD | Roy Anders",
   "Teams": "WM - Walmart/Sams PSP | Crossmark Walmart PSP | Dedicated - Walmart PSP",
   "StoreName": "Walmart SC",
   "City": "Marysville",
   "State": "WA",
   "Latitude": 48.0791175,
   "Longitude": -122.1884787
 },
 {
   "StoreKey": 638,
   "AreaManagers": "Renfrow (UNILV), Kimberly | Caillier (UNILV), Joe | Anthony (UNILV), Pam | Mosteller (UNILV), Dawn | Fredrick (UNILV), Linda | Bailey, Steven | WESTMORELAND, CHRISTOPHER | Wolsefer, Donna | Varnell, Jill | Ruiz (UNILV), Pedro | Heffernan (UNILV), Kevin",
   "RegionalManagers": "Veronica Mendez UNVIL | Angela Mons Unilever DRT RAD | Connie Germoso UNVIL | Brian Schubert | Shawn Massey | Angel Bruce | LT Haymon RAD WMTyson",
   "Teams": "Unilever - DRT | WM - Walmart/Sams PSP | Crossmark Walmart PSP | Dedicated - Walmart PSP | WM - DRT - Tyson",
   "StoreName": "SAFEWAY",
   "City": "OAKLAND",
   "State": "CA",
   "Latitude": 37.7981791,
   "Longitude": -122.1825284
 },
 {
   "StoreKey": 2648,
   "AreaManagers": "Renfrow (UNILV), Kimberly | Cline, Jennifer | ALCALA, ALEJANDRO | Cross, Shawn",
   "RegionalManagers": "Veronica Mendez UNVIL | Veronica Hernandez | Shannon Falcon RAD | Angel Bruce",
   "Teams": "Unilever - DRT | WM - Walmart/Sams PSP | Crossmark Walmart PSP | Dedicated - Walmart PSP",
   "StoreName": "Walmart",
   "City": "SAN LEANDRO",
   "State": "CA",
   "Latitude": 37.7145376,
   "Longitude": -122.1777979
 },
 {
   "StoreKey": 3757,
   "AreaManagers": "Toriumi, Lisa | Kristek, Dustin | Simpson, Gena",
   "RegionalManagers": " | Shannon Falcon RAD | Roy Anders",
   "Teams": "WM - Walmart/Sams PSP | Crossmark Walmart PSP | Dedicated - Walmart PSP",
   "StoreName": "Walmart SC",
   "City": "Arlington",
   "State": "WA",
   "Latitude": 48.1506624,
   "Longitude": -122.1746252
 },
 {
   "StoreKey": 5041,
   "AreaManagers": "Brandon, Kolby | Kristek, Dustin | Simpson, Gena | Oblenis, Keith",
   "RegionalManagers": "Veronica Hernandez | Shannon Falcon RAD | Roy Anders | LT Haymon RAD WMTyson",
   "Teams": "WM - Walmart/Sams PSP | Crossmark Walmart PSP | Dedicated - Walmart PSP | WM - DRT - Tyson",
   "StoreName": "Walmart SC",
   "City": "Bonney Lake",
   "State": "WA",
   "Latitude": 47.1676281,
   "Longitude": -122.1718266
 },
 {
   "StoreKey": 994,
   "AreaManagers": "Renfrow (UNILV), Kimberly | Porter, Trena | Guzman (UNILV), Yolanda | Etingoff, Beth | ERVIN, KIMBERLY | Kucera RMM WM DRT P&G, Cherise | Marcum, Joel | Phillips, Patricia",
   "RegionalManagers": "Veronica Mendez UNVIL |  | Angela Mons Unilever DRT RAD | Raina Rogge | Shawn Massey | James Johnson | Sherry Blankenhorn | LT Haymon RAD WMTyson",
   "Teams": "Unilever - DRT | WM - Walmart/Sams PSP | Crossmark Walmart PSP | WM - DRT - P&G | Dedicated - Walmart PSP | WM - DRT - Tyson",
   "StoreName": "SAFEWAY",
   "City": "SAN LEANDRO",
   "State": "CA",
   "Latitude": 37.7231371,
   "Longitude": -122.1561362
 },
 {
   "StoreKey": 790,
   "AreaManagers": "Renfrow (UNILV), Kimberly | Hulbert, Lynne | STOUT, CHRISTINE | Stull, Monica | Yee (UNILV), Loree | Mathis (UNILV), Judith",
   "RegionalManagers": "Veronica Mendez UNVIL | Jonathan Shockey RAD | Shannon Falcon RAD | Angel Bruce | Connie Germoso UNVIL",
   "Teams": "Unilever - DRT | WM - Walmart/Sams PSP | Crossmark Walmart PSP | Dedicated - Walmart PSP",
   "StoreName": "SAFEWAY",
   "City": "SAN LEANDRO",
   "State": "CA",
   "Latitude": 37.7343974,
   "Longitude": -122.1522505
 },
 {
   "StoreKey": 70400534,
   "AreaManagers": "Renfrow (UNILV), Kimberly",
   "RegionalManagers": "Veronica Mendez UNVIL",
   "Teams": "Unilever - DRT",
   "StoreName": "Foodsco",
   "City": "OAKLAND",
   "State": "CA",
   "Latitude": 37.7434141,
   "Longitude": -122.148696
 },
 {
   "StoreKey": 3111,
   "AreaManagers": "Renfrow (UNILV), Kimberly | Stevens, Elizabeth | Falcon RMM, Shannon | Johnson, Nicole | Hayes, Donavon",
   "RegionalManagers": "Veronica Mendez UNVIL | Jonathan Shockey RAD | Shannon Falcon RAD | Roy Anders | LT Haymon RAD WMTyson",
   "Teams": "Unilever - DRT | WM - Walmart/Sams PSP | Crossmark Walmart PSP | Dedicated - Walmart PSP | WM - DRT - Tyson",
   "StoreName": "PAK N SAVE",
   "City": "SAN LEANDRO",
   "State": "CA",
   "Latitude": 37.7028373,
   "Longitude": -122.1433547
 },
 {
   "StoreKey": 3098,
   "AreaManagers": "Brandon, Kolby | Kristek, Dustin | Simpson, Gena | Oblenis, Keith | Shannon (UNILV), Kimberly",
   "RegionalManagers": "Veronica Hernandez | Shannon Falcon RAD | Roy Anders | LT Haymon RAD WMTyson | Angela Mons Unilever DRT RAD",
   "Teams": "WM - Walmart/Sams PSP | Crossmark Walmart PSP | Dedicated - Walmart PSP | WM - DRT - Tyson | Unilever - DRT",
   "StoreName": "Walmart NM",
   "City": "Bellevue",
   "State": "WA",
   "Latitude": 47.6089024,
   "Longitude": -122.1394697
 },
 {
   "StoreKey": 5434,
   "AreaManagers": "Renfrow (UNILV), Kimberly | Cline, Jennifer | ALCALA, ALEJANDRO | Cross, Shawn",
   "RegionalManagers": "Veronica Mendez UNVIL | Veronica Hernandez | Shannon Falcon RAD | Angel Bruce",
   "Teams": "Unilever - DRT | WM - Walmart/Sams PSP | Crossmark Walmart PSP | Dedicated - Walmart PSP",
   "StoreName": "Walmart",
   "City": "SAN LEANDRO",
   "State": "CA",
   "Latitude": 37.6881557,
   "Longitude": -122.1314913
 },
 {
   "StoreKey": 969,
   "AreaManagers": "Renfrow (UNILV), Kimberly | Tollard (UNILV), Anne | Woodward, Shelley | CREGER, SHARON | Henrichsen, Kelly",
   "RegionalManagers": "Veronica Mendez UNVIL | Angela Mons Unilever DRT RAD | Raina Rogge | Shawn Massey | Sherry Blankenhorn",
   "Teams": "Unilever - DRT | WM - Walmart/Sams PSP | Crossmark Walmart PSP | Dedicated - Walmart PSP",
   "StoreName": "SAFEWAY",
   "City": "MORAGA",
   "State": "CA",
   "Latitude": 37.8361443,
   "Longitude": -122.128686
 },
 {
   "StoreKey": 1428,
   "AreaManagers": "Renfrow (UNILV), Kimberly | Anthony (UNILV), Pam | Desantis, Monica | AROCHO, JENIFER | Manion, Cheryl | Guzman (UNILV), Yolanda | Mathis (UNILV), Judith",
   "RegionalManagers": "Veronica Mendez UNVIL | Angela Mons Unilever DRT RAD | Alicia Fiechter | Elizabeth Sinclair | Roy Anders | Connie Germoso UNVIL",
   "Teams": "Unilever - DRT | WM - Walmart/Sams PSP | Crossmark Walmart PSP | Dedicated - Walmart PSP",
   "StoreName": "Target",
   "City": "SAN LEANDRO",
   "State": "CA",
   "Latitude": 37.6990895,
   "Longitude": -122.1265886
 },
 {
   "StoreKey": 2185,
   "AreaManagers": "Renfrow (UNILV), Kimberly | Torres (UNILV), Natalie | Henry, Linda | ABEDRABBO, IMAD | Simko, Linda",
   "RegionalManagers": "Veronica Mendez UNVIL | Connie Germoso UNVIL | Alicia Fiechter | Elizabeth Sinclair | Roy Anders",
   "Teams": "Unilever - DRT | WM - Walmart/Sams PSP | Crossmark Walmart PSP | Dedicated - Walmart PSP",
   "StoreName": "Target",
   "City": "Hayward",
   "State": "CA",
   "Latitude": 37.6662802,
   "Longitude": -122.1208482
 },
 {
   "StoreKey": 201,
   "AreaManagers": "Renfrow (UNILV), Kimberly | Navor (UNILV), Michael | Eby (UNILV), Kathi | Miller, Marilyn | ROWTON, JESSICA | Birchfield RMM WM P G, Corlandus | Johnson, Nicole | Hayes, Donavon | Porter, Trena",
   "RegionalManagers": "Veronica Mendez UNVIL | Angela Mons Unilever DRT RAD | Jonathan Shockey RAD | Elizabeth Sinclair | James Johnson | Roy Anders | LT Haymon RAD WMTyson | ",
   "Teams": "Unilever - DRT | WM - Walmart/Sams PSP | Crossmark Walmart PSP | WM - DRT - P&G | Dedicated - Walmart PSP | WM - DRT - Tyson",
   "StoreName": "Cardenas Market",
   "City": "Hayward",
   "State": "CA",
   "Latitude": 37.6644284,
   "Longitude": -122.1162852
 },
 {
   "StoreKey": 3801,
   "AreaManagers": "Toriumi, Lisa | Kristek, Dustin | Simpson, Gena",
   "RegionalManagers": " | Shannon Falcon RAD | Roy Anders",
   "Teams": "WM - Walmart/Sams PSP | Crossmark Walmart PSP | Dedicated - Walmart PSP",
   "StoreName": "Walmart SC",
   "City": "Marysville",
   "State": "WA",
   "Latitude": 48.0556363,
   "Longitude": -122.1125502
 },
 {
   "StoreKey": 3493,
   "AreaManagers": "Renfrow (UNILV), Kimberly | Cline, Jennifer | ALCALA, ALEJANDRO | Cross, Shawn",
   "RegionalManagers": "Veronica Mendez UNVIL | Veronica Hernandez | Shannon Falcon RAD | Angel Bruce",
   "Teams": "Unilever - DRT | WM - Walmart/Sams PSP | Crossmark Walmart PSP | Dedicated - Walmart PSP",
   "StoreName": "Walmart",
   "City": "MARTINEZ",
   "State": "CA",
   "Latitude": 37.9968603,
   "Longitude": -122.1094842
 },
 {
   "StoreKey": 2280,
   "AreaManagers": "Renfrow (UNILV), Kimberly | Cline, Jennifer | ALCALA, ALEJANDRO | Cross, Shawn | Navor (UNILV), Michael",
   "RegionalManagers": "Veronica Mendez UNVIL | Veronica Hernandez | Shannon Falcon RAD | Angel Bruce",
   "Teams": "Unilever - DRT | WM - Walmart/Sams PSP | Crossmark Walmart PSP | Dedicated - Walmart PSP",
   "StoreName": "Walmart SC",
   "City": "Mountain View",
   "State": "CA",
   "Latitude": 37.4010201,
   "Longitude": -122.1092052
 },
 {
   "StoreKey": 5073,
   "AreaManagers": "Brandon, Kolby | Kristek, Dustin | Simpson, Gena | Oblenis, Keith",
   "RegionalManagers": "Veronica Hernandez | Shannon Falcon RAD | Roy Anders | LT Haymon RAD WMTyson",
   "Teams": "WM - Walmart/Sams PSP | Crossmark Walmart PSP | Dedicated - Walmart PSP | WM - DRT - Tyson",
   "StoreName": "Walmart",
   "City": "COVINGTON",
   "State": "WA",
   "Latitude": 47.3610207,
   "Longitude": -122.1085458
 },
 {
   "StoreKey": 972,
   "AreaManagers": "Renfrow (UNILV), Kimberly | Yee (UNILV), Loree | Southerland, Kimberly | HICKEY, GLENNA | Marrone, Andrew A | Schaaf, Dyanna | Phillips, Patricia",
   "RegionalManagers": "Veronica Mendez UNVIL | Dani Preslicka | Shawn Massey | James Johnson | Angel Bruce | LT Haymon RAD WMTyson",
   "Teams": "Unilever - DRT | WM - Walmart/Sams PSP | Crossmark Walmart PSP | WM - DRT - P&G | Dedicated - Walmart PSP | WM - DRT - Tyson",
   "StoreName": "SAFEWAY",
   "City": "MARTINEZ",
   "State": "CA",
   "Latitude": 37.9579261,
   "Longitude": -122.0939505
 },
 {
   "StoreKey": 797,
   "AreaManagers": "Renfrow (UNILV), Kimberly | Miller, Marilyn | OLSON, LINDSEY | Lorenzano, Luis | Tollard (UNILV), Anne | Fredrick (UNILV), Linda | Mathis (UNILV), Judith",
   "RegionalManagers": "Veronica Mendez UNVIL | Jonathan Shockey RAD | Shannon Falcon RAD | Roy Anders | Angela Mons Unilever DRT RAD | Connie Germoso UNVIL",
   "Teams": "Unilever - DRT | WM - Walmart/Sams PSP | Crossmark Walmart PSP | Dedicated - Walmart PSP",
   "StoreName": "SAFEWAY",
   "City": "Hayward",
   "State": "CA",
   "Latitude": 37.6526998,
   "Longitude": -122.0915008
 },
 {
   "StoreKey": 971,
   "AreaManagers": "Renfrow (UNILV), Kimberly | Gautney, Jemma | Ahrens, Lorena | Maphis, Julie | Ott (UNILV), Jan",
   "RegionalManagers": "Veronica Mendez UNVIL | Jonathan Shockey RAD | Shannon Falcon RAD | Roy Anders | Angela Mons Unilever DRT RAD",
   "Teams": "Unilever - DRT | WM - Walmart/Sams PSP | Crossmark Walmart PSP | Dedicated - Walmart PSP",
   "StoreName": "SAFEWAY",
   "City": "Hayward",
   "State": "CA",
   "Latitude": 37.6799292,
   "Longitude": -122.083554
 },
 {
   "StoreKey": 211,
   "AreaManagers": "Renfrow (UNILV), Kimberly | Gianotti (UNILV), Deborah | Reimer, Donna | WILSON, DAVID | Padalecki, Marianne | Anthony (UNILV), Pam | Porter, Trena | Chiger UNILV, Brandon",
   "RegionalManagers": "Veronica Mendez UNVIL | Dani Preslicka | Shawn Massey | Sherry Blankenhorn | Angela Mons Unilever DRT RAD |  | Connie Germoso UNVIL",
   "Teams": "Unilever - DRT | WM - Walmart/Sams PSP | Crossmark Walmart PSP | Dedicated - Walmart PSP",
   "StoreName": "Cardenas Market",
   "City": "Hayward",
   "State": "CA",
   "Latitude": 37.6485546,
   "Longitude": -122.0752864
 },
 {
   "StoreKey": 768,
   "AreaManagers": "Renfrow (UNILV), Kimberly | Gianotti (UNILV), Deborah | Caillier (UNILV), Joe | Martinez, Roberta | DART, TREVOR | Marrone, Andrew A | Russell, Rebecca | Phillips, Patricia | Ott (UNILV), Jan",
   "RegionalManagers": "Veronica Mendez UNVIL | Dani Preslicka | Shawn Massey | James Johnson | Sherry Blankenhorn | LT Haymon RAD WMTyson | Angela Mons Unilever DRT RAD",
   "Teams": "Unilever - DRT | WM - Walmart/Sams PSP | Crossmark Walmart PSP | WM - DRT - P&G | Dedicated - Walmart PSP | WM - DRT - Tyson",
   "StoreName": "SAFEWAY",
   "City": "Castro Valley",
   "State": "CA",
   "Latitude": 37.6964207,
   "Longitude": -122.0751464
 },
 {
   "StoreKey": 928,
   "AreaManagers": "Renfrow (UNILV), Kimberly | Shannon (UNILV), Kimberly | Porter, Trena | Guzman (UNILV), Yolanda | Walton, Dayvon | COLLINS, LASHUNDA | Kucera RMM WM DRT P&G, Cherise | Orr, Janeice | Phillips, Patricia",
   "RegionalManagers": "Veronica Mendez UNVIL | Angela Mons Unilever DRT RAD |  | Raina Rogge | Shawn Massey | James Johnson | Angel Bruce | LT Haymon RAD WMTyson",
   "Teams": "Unilever - DRT | WM - Walmart/Sams PSP | Crossmark Walmart PSP | WM - DRT - P&G | Dedicated - Walmart PSP | WM - DRT - Tyson",
   "StoreName": "SAFEWAY",
   "City": "Pleasant Hill",
   "State": "CA",
   "Latitude": 37.9341789,
   "Longitude": -122.0723389
 },
 {
   "StoreKey": 697,
   "AreaManagers": "Renfrow (UNILV), Kimberly | Caillier (UNILV), Joe | Anthony (UNILV), Pam | Porter, Trena | Guzman (UNILV), Yolanda | Walton, Dayvon | ERVIN, KIMBERLY | Marcum, Joel | Heffernan (UNILV), Kevin",
   "RegionalManagers": "Veronica Mendez UNVIL | Angela Mons Unilever DRT RAD |  | Raina Rogge | Shawn Massey | Sherry Blankenhorn | Connie Germoso UNVIL",
   "Teams": "Unilever - DRT | WM - Walmart/Sams PSP | Crossmark Walmart PSP | Dedicated - Walmart PSP",
   "StoreName": "SAFEWAY",
   "City": "Walnut Creek",
   "State": "CA",
   "Latitude": 37.8783723,
   "Longitude": -122.0719095
 },
 {
   "StoreKey": 786,
   "AreaManagers": "Renfrow (UNILV), Kimberly | Shannon (UNILV), Kimberly | Pfluger, Felicia | OLSON, LINDSEY | Lorenzano, Luis | Hayes, Donavon | Mosteller (UNILV), Dawn",
   "RegionalManagers": "Veronica Mendez UNVIL | Angela Mons Unilever DRT RAD |  | Shannon Falcon RAD | Roy Anders | LT Haymon RAD WMTyson",
   "Teams": "Unilever - DRT | WM - Walmart/Sams PSP | Crossmark Walmart PSP | Dedicated - Walmart PSP | WM - DRT - Tyson",
   "StoreName": "SAFEWAY",
   "City": "FELTON",
   "State": "CA",
   "Latitude": 37.0529651,
   "Longitude": -122.0687549
 },
 {
   "StoreKey": 2031,
   "AreaManagers": "Renfrow (UNILV), Kimberly | Cline, Jennifer | ALCALA, ALEJANDRO | Cross, Shawn",
   "RegionalManagers": "Veronica Mendez UNVIL | Veronica Hernandez | Shannon Falcon RAD | Angel Bruce",
   "Teams": "Unilever - DRT | WM - Walmart/Sams PSP | Crossmark Walmart PSP | Dedicated - Walmart PSP",
   "StoreName": "Walmart",
   "City": "Union City",
   "State": "CA",
   "Latitude": 37.6047976,
   "Longitude": -122.0672323
 },
 {
   "StoreKey": 330,
   "AreaManagers": "Renfrow (UNILV), Kimberly | Martinez, Roberta | BUNKLEY, YOLONDA | Russell, Rebecca | Heffernan (UNILV), Kevin",
   "RegionalManagers": "Veronica Mendez UNVIL | Dani Preslicka | Shawn Massey | Sherry Blankenhorn | Connie Germoso UNVIL",
   "Teams": "Unilever - DRT | WM - Walmart/Sams PSP | Crossmark Walmart PSP | Dedicated - Walmart PSP",
   "StoreName": "Target",
   "City": "Pleasant Hill",
   "State": "CA",
   "Latitude": 37.9769401,
   "Longitude": -122.0668563
 },
 {
   "StoreKey": 1208,
   "AreaManagers": "Renfrow (UNILV), Kimberly | Ruiz (UNILV), Pedro | Husk (UNILV), James",
   "RegionalManagers": "Veronica Mendez UNVIL | Angela Mons Unilever DRT RAD | Connie Germoso UNVIL",
   "Teams": "Unilever - DRT",
   "StoreName": "Target",
   "City": "Walnut Creek",
   "State": "CA",
   "Latitude": 37.9044653,
   "Longitude": -122.0647622
 },
 {
   "StoreKey": 1472,
   "AreaManagers": "Renfrow (UNILV), Kimberly | Beyersdorf, Jennifer | Ahrens, Lorena | Birchfield RMM WM P G, Corlandus | Behrens, Karin | Oblenis, Keith",
   "RegionalManagers": "Veronica Mendez UNVIL | Jonathan Shockey RAD | Shannon Falcon RAD | James Johnson | Roy Anders | LT Haymon RAD WMTyson",
   "Teams": "Unilever - DRT | WM - Walmart/Sams PSP | Crossmark Walmart PSP | WM - DRT - P&G | Dedicated - Walmart PSP | WM - DRT - Tyson",
   "StoreName": "Target",
   "City": "Hayward",
   "State": "CA",
   "Latitude": 37.6077647,
   "Longitude": -122.0628647
 },
 {
   "StoreKey": 2941,
   "AreaManagers": "Renfrow (UNILV), Kimberly | Mosteller (UNILV), Dawn | Skelton, Tammy | WESTMORELAND, CHRISTOPHER | Birchfield RMM WM P G, Corlandus | Orr, Janeice | Varnell, Jill",
   "RegionalManagers": "Veronica Mendez UNVIL | Angela Mons Unilever DRT RAD | Brian Schubert | Shawn Massey | James Johnson | Angel Bruce | LT Haymon RAD WMTyson",
   "Teams": "Unilever - DRT | WM - Walmart/Sams PSP | Crossmark Walmart PSP | WM - DRT - P&G | Dedicated - Walmart PSP | WM - DRT - Tyson",
   "StoreName": "SAFEWAY",
   "City": "Pleasant Hill",
   "State": "CA",
   "Latitude": 37.9710644,
   "Longitude": -122.0615782
 },
 {
   "StoreKey": 1541,
   "AreaManagers": "Renfrow (UNILV), Kimberly | Guzman (UNILV), Yolanda | Ruiz (UNILV), Pedro | Restivo, James | ALLENDEZ, SHUNKO | Cortes, Michael | Phillips, Patricia | Mathis (UNILV), Judith",
   "RegionalManagers": "Veronica Mendez UNVIL | Angela Mons Unilever DRT RAD | Raina Rogge | Shawn Massey | Sherry Blankenhorn | LT Haymon RAD WMTyson | Connie Germoso UNVIL",
   "Teams": "Unilever - DRT | WM - Walmart/Sams PSP | Crossmark Walmart PSP | Dedicated - Walmart PSP | WM - DRT - Tyson",
   "StoreName": "SAFEWAY",
   "City": "Pleasant Hill",
   "State": "CA",
   "Latitude": 37.948935,
   "Longitude": -122.0579308
 },
 {
   "StoreKey": 917,
   "AreaManagers": "Renfrow (UNILV), Kimberly | Reimer, Donna | WILSON, DAVID | Padalecki, Marianne | Mosteller (UNILV), Dawn",
   "RegionalManagers": "Veronica Mendez UNVIL | Dani Preslicka | Shawn Massey | Sherry Blankenhorn | Angela Mons Unilever DRT RAD",
   "Teams": "Unilever - DRT | WM - Walmart/Sams PSP | Crossmark Walmart PSP | Dedicated - Walmart PSP",
   "StoreName": "SAFEWAY",
   "City": "Walnut Creek",
   "State": "CA",
   "Latitude": 37.8981567,
   "Longitude": -122.0569269
 },
 {
   "StoreKey": 6612,
   "AreaManagers": "Cline, Jennifer",
   "RegionalManagers": "Veronica Hernandez",
   "Teams": "WM - Walmart/Sams PSP",
   "StoreName": "Sam's Club",
   "City": "CONCORD",
   "State": "CA",
   "Latitude": 37.9819333,
   "Longitude": -122.055426
 },
 {
   "StoreKey": 3010,
   "AreaManagers": "Renfrow (UNILV), Kimberly",
   "RegionalManagers": "Veronica Mendez UNVIL",
   "Teams": "Unilever - DRT",
   "StoreName": "SAFEWAY",
   "City": "Castro Valley",
   "State": "CA",
   "Latitude": 37.694781,
   "Longitude": -122.0504044
 },
 {
   "StoreKey": 1224,
   "AreaManagers": "Renfrow (UNILV), Kimberly | Tollard (UNILV), Anne | Woodward, Shelley | COLLINS, LASHUNDA | Henrichsen, Kelly | Phillips, Patricia | Chiger UNILV, Brandon",
   "RegionalManagers": "Veronica Mendez UNVIL | Angela Mons Unilever DRT RAD | Raina Rogge | Shawn Massey | Sherry Blankenhorn | LT Haymon RAD WMTyson | Connie Germoso UNVIL",
   "Teams": "Unilever - DRT | WM - Walmart/Sams PSP | Crossmark Walmart PSP | Dedicated - Walmart PSP | WM - DRT - Tyson",
   "StoreName": "SAFEWAY",
   "City": "Newark",
   "State": "CA",
   "Latitude": 37.5518892,
   "Longitude": -122.0499185
 },
 {
   "StoreKey": 2607,
   "AreaManagers": "Renfrow (UNILV), Kimberly | Toriumi, Lisa | DELEHANT, MARLENE | Jensen, Kimberly | Heffernan (UNILV), Kevin",
   "RegionalManagers": "Veronica Mendez UNVIL |  | Shannon Falcon RAD | Roy Anders | Connie Germoso UNVIL",
   "Teams": "Unilever - DRT | WM - Walmart/Sams PSP | Crossmark Walmart PSP | Dedicated - Walmart PSP",
   "StoreName": "SAFEWAY",
   "City": "SANTA CRUZ",
   "State": "CA",
   "Latitude": 36.9614478,
   "Longitude": -122.045352
 },
 {
   "StoreKey": 936,
   "AreaManagers": "Renfrow (UNILV), Kimberly | Korn (UNILV), Laurie | Eby (UNILV), Kathi | Dinkins, Daniel | ROWTON, JESSICA | Earhart, Amber",
   "RegionalManagers": "Veronica Mendez UNVIL | Angela Mons Unilever DRT RAD | Alicia Fiechter | Elizabeth Sinclair | Angel Bruce",
   "Teams": "Unilever - DRT | WM - Walmart/Sams PSP | Crossmark Walmart PSP | Dedicated - Walmart PSP",
   "StoreName": "SAFEWAY",
   "City": "Walnut Creek",
   "State": "CA",
   "Latitude": 37.92842,
   "Longitude": -122.0392789
 },
 {
   "StoreKey": 2048,
   "AreaManagers": "Renfrow (UNILV), Kimberly | Cline, Jennifer | ALCALA, ALEJANDRO | Cross, Shawn | Oblenis, Keith | Shannon (UNILV), Kimberly",
   "RegionalManagers": "Veronica Mendez UNVIL | Veronica Hernandez | Shannon Falcon RAD | Angel Bruce | LT Haymon RAD WMTyson | Angela Mons Unilever DRT RAD",
   "Teams": "Unilever - DRT | WM - Walmart/Sams PSP | Crossmark Walmart PSP | Dedicated - Walmart PSP | WM - DRT - Tyson",
   "StoreName": "Walmart SC",
   "City": "FAIRFIELD",
   "State": "CA",
   "Latitude": 38.2791375,
   "Longitude": -122.0351124
 },
 {
   "StoreKey": 962,
   "AreaManagers": "Renfrow (UNILV), Kimberly | Hulbert, Lynne | DELEHANT, MARLENE | Reynolds, Sarah | Eby (UNILV), Kathi",
   "RegionalManagers": "Veronica Mendez UNVIL | Jonathan Shockey RAD | Shannon Falcon RAD | Angel Bruce | Angela Mons Unilever DRT RAD",
   "Teams": "Unilever - DRT | WM - Walmart/Sams PSP | Crossmark Walmart PSP | Dedicated - Walmart PSP",
   "StoreName": "SAFEWAY",
   "City": "Alamo",
   "State": "CA",
   "Latitude": 37.8507636,
   "Longitude": -122.0350826
 },
 {
   "StoreKey": 3410,
   "AreaManagers": "Renfrow (UNILV), Kimberly",
   "RegionalManagers": "Veronica Mendez UNVIL",
   "Teams": "Unilever - DRT",
   "StoreName": "Target",
   "City": "Scotts Valley",
   "State": "CA",
   "Latitude": 37.0484343,
   "Longitude": -122.0320079
 },
 {
   "StoreKey": 300,
   "AreaManagers": "Renfrow (UNILV), Kimberly | Navor (UNILV), Michael | Caillier (UNILV), Joe | Teich, Douglas | Tripoli, Michael | WOOD, JONATHAN | Salvage, Sonya | Hayes, Donavon | Mathis (UNILV), Judith",
   "RegionalManagers": "Veronica Mendez UNVIL | Raina Rogge | Shawn Massey | Sherry Blankenhorn | LT Haymon RAD WMTyson | Connie Germoso UNVIL",
   "Teams": "Unilever - DRT | WM - Walmart/Sams PSP | Crossmark Walmart PSP | Dedicated - Walmart PSP | WM - DRT - Tyson",
   "StoreName": "SAFEWAY",
   "City": "Scotts Valley",
   "State": "CA",
   "Latitude": 37.0462294,
   "Longitude": -122.03105
 },
 {
   "StoreKey": 955,
   "AreaManagers": "Renfrow (UNILV), Kimberly | Caillier (UNILV), Joe | Guzman (UNILV), Yolanda | Specht WM RMM, Wolf | ERVIN, KIMBERLY | Kucera RMM WM DRT P&G, Cherise | Marcum, Joel | Phillips, Patricia",
   "RegionalManagers": "Veronica Mendez UNVIL | Angela Mons Unilever DRT RAD | Raina Rogge | Shawn Massey | James Johnson | Sherry Blankenhorn | LT Haymon RAD WMTyson",
   "Teams": "Unilever - DRT | WM - Walmart/Sams PSP | Crossmark Walmart PSP | WM - DRT - P&G | Dedicated - Walmart PSP | WM - DRT - Tyson",
   "StoreName": "SAFEWAY",
   "City": "CONCORD",
   "State": "CA",
   "Latitude": 37.9781879,
   "Longitude": -122.0280829
 },
 {
   "StoreKey": 1197,
   "AreaManagers": "Renfrow (UNILV), Kimberly | Mosteller (UNILV), Dawn | Bentley, Leslie | CLARK, ASHLEY | Malone, Bret | Varnell, Jill",
   "RegionalManagers": "Veronica Mendez UNVIL | Angela Mons Unilever DRT RAD | Raina Rogge | Elizabeth Sinclair | Roy Anders | LT Haymon RAD WMTyson",
   "Teams": "Unilever - DRT | WM - Walmart/Sams PSP | Crossmark Walmart PSP | Dedicated - Walmart PSP | WM - DRT - Tyson",
   "StoreName": "SAFEWAY",
   "City": "Union City",
   "State": "CA",
   "Latitude": 37.5876607,
   "Longitude": -122.0197103
 },
 {
   "StoreKey": 3026,
   "AreaManagers": "Renfrow (UNILV), Kimberly | Nelson, Kellie | EASTMAN, TERRY | Nguyen, Vu",
   "RegionalManagers": "Veronica Mendez UNVIL | Veronica Hernandez |  | Angel Bruce",
   "Teams": "Unilever - DRT | WM - Walmart/Sams PSP | Crossmark Walmart PSP | Dedicated - Walmart PSP",
   "StoreName": "Safeway Store",
   "City": "Walnut Creek",
   "State": "CA",
   "Latitude": 37.9272484,
   "Longitude": -122.0185483
 },
 {
   "StoreKey": 799,
   "AreaManagers": "Renfrow (UNILV), Kimberly | Hulbert, Lynne | STOUT, CHRISTINE | Stull, Monica | Mosteller (UNILV), Dawn | Porter, Trena | Ruiz (UNILV), Pedro | Mathis (UNILV), Judith",
   "RegionalManagers": "Veronica Mendez UNVIL | Jonathan Shockey RAD | Shannon Falcon RAD | Angel Bruce | Angela Mons Unilever DRT RAD |  | Connie Germoso UNVIL",
   "Teams": "Unilever - DRT | WM - Walmart/Sams PSP | Crossmark Walmart PSP | Dedicated - Walmart PSP",
   "StoreName": "SAFEWAY",
   "City": "SANTA CRUZ",
   "State": "CA",
   "Latitude": 36.9820675,
   "Longitude": -122.0072785
 },
 {
   "StoreKey": 5608,
   "AreaManagers": "Renfrow (UNILV), Kimberly | Cline, Jennifer | ALCALA, ALEJANDRO | Cross, Shawn | Oblenis, Keith",
   "RegionalManagers": "Veronica Mendez UNVIL | Veronica Hernandez | Shannon Falcon RAD | Angel Bruce | LT Haymon RAD WMTyson",
   "Teams": "Unilever - DRT | WM - Walmart/Sams PSP | Crossmark Walmart PSP | Dedicated - Walmart PSP | WM - DRT - Tyson",
   "StoreName": "Walmart NM",
   "City": "Vacaville",
   "State": "CA",
   "Latitude": 38.3446644,
   "Longitude": -121.9958167
 },
 {
   "StoreKey": 1465,
   "AreaManagers": "Renfrow (UNILV), Kimberly | Anthony (UNILV), Pam | Ruiz (UNILV), Pedro | Cowley (UNILV), Matthew | Hogshire, Brenda | JUDD, JACQUELINE | Tyler, Kimberly",
   "RegionalManagers": "Veronica Mendez UNVIL | Angela Mons Unilever DRT RAD | Connie Germoso UNVIL | Brian Schubert | Elizabeth Sinclair | Roy Anders",
   "Teams": "Unilever - DRT | WM - Walmart/Sams PSP | Crossmark Walmart PSP | Dedicated - Walmart PSP",
   "StoreName": "SAFEWAY",
   "City": "San Jose",
   "State": "CA",
   "Latitude": 37.3207869,
   "Longitude": -121.9926089
 },
 {
   "StoreKey": 1192,
   "AreaManagers": "Renfrow (UNILV), Kimberly | Woodward, Shelley | CREGER, SHARON | Salvage, Sonya | Chiger UNILV, Brandon",
   "RegionalManagers": "Veronica Mendez UNVIL | Raina Rogge | Shawn Massey | Sherry Blankenhorn | Connie Germoso UNVIL",
   "Teams": "Unilever - DRT | WM - Walmart/Sams PSP | Crossmark Walmart PSP | Dedicated - Walmart PSP",
   "StoreName": "SAFEWAY",
   "City": "CONCORD",
   "State": "CA",
   "Latitude": 37.9659914,
   "Longitude": -121.9909628
 },
 {
   "StoreKey": 3708,
   "AreaManagers": "Renfrow (UNILV), Kimberly | Cline, Jennifer | ALCALA, ALEJANDRO | Cross, Shawn",
   "RegionalManagers": "Veronica Mendez UNVIL | Veronica Hernandez | Shannon Falcon RAD | Angel Bruce",
   "Teams": "Unilever - DRT | WM - Walmart/Sams PSP | Crossmark Walmart PSP | Dedicated - Walmart PSP",
   "StoreName": "Wal Mart Supercenter",
   "City": "Suisun City",
   "State": "CA",
   "Latitude": 38.2426316,
   "Longitude": -121.9896094
 },
 {
   "StoreKey": 309,
   "AreaManagers": "Renfrow (UNILV), Kimberly | Navor (UNILV), Michael | Caillier (UNILV), Joe | Tollard (UNILV), Anne | Nix, Linda | CREGER, SHARON | Henrichsen, Kelly | Ott (UNILV), Jan | Porter, Trena | Husk (UNILV), James",
   "RegionalManagers": "Veronica Mendez UNVIL | Angela Mons Unilever DRT RAD | Dani Preslicka | Shawn Massey | Sherry Blankenhorn |  | Connie Germoso UNVIL",
   "Teams": "Unilever - DRT | WM - Walmart/Sams PSP | Crossmark Walmart PSP | Dedicated - Walmart PSP",
   "StoreName": "SAFEWAY",
   "City": "Fremont",
   "State": "CA",
   "Latitude": 37.5453319,
   "Longitude": -121.9894383
 },
 {
   "StoreKey": 3123,
   "AreaManagers": "Renfrow (UNILV), Kimberly | Cline, Jennifer | ALCALA, ALEJANDRO | Cross, Shawn",
   "RegionalManagers": "Veronica Mendez UNVIL | Veronica Hernandez | Shannon Falcon RAD | Angel Bruce",
   "Teams": "Unilever - DRT | WM - Walmart/Sams PSP | Crossmark Walmart PSP | Dedicated - Walmart PSP",
   "StoreName": "Walmart NM",
   "City": "Santa Clara",
   "State": "CA",
   "Latitude": 37.390084,
   "Longitude": -121.9854336
 },
 {
   "StoreKey": 1422,
   "AreaManagers": "Renfrow (UNILV), Kimberly | Teich, Douglas | Anthony (UNILV), Pam | Desantis, Monica | AROCHO, JENIFER | Manion, Cheryl",
   "RegionalManagers": "Veronica Mendez UNVIL | Angela Mons Unilever DRT RAD | Alicia Fiechter | Elizabeth Sinclair | Roy Anders",
   "Teams": "Unilever - DRT | WM - Walmart/Sams PSP | Crossmark Walmart PSP | Dedicated - Walmart PSP",
   "StoreName": "Target",
   "City": "Fremont",
   "State": "CA",
   "Latitude": 37.5450006,
   "Longitude": -121.9851315
 },
 {
   "StoreKey": 982,
   "AreaManagers": "Renfrow (UNILV), Kimberly | Teich, Douglas | Beyersdorf, Jennifer | Ahrens, Lorena | Maphis, Julie | Mosteller (UNILV), Dawn",
   "RegionalManagers": "Veronica Mendez UNVIL | Jonathan Shockey RAD | Shannon Falcon RAD | Roy Anders | Angela Mons Unilever DRT RAD",
   "Teams": "Unilever - DRT | WM - Walmart/Sams PSP | Crossmark Walmart PSP | Dedicated - Walmart PSP",
   "StoreName": "SAFEWAY",
   "City": "SAN RAMON",
   "State": "CA",
   "Latitude": 37.7731741,
   "Longitude": -121.9767038
 },
 {
   "StoreKey": 700,
   "AreaManagers": "Renfrow (UNILV), Kimberly | Navor (UNILV), Michael | Teich, Douglas | Tollard (UNILV), Anne | Tripoli, Michael | WOOD, JONATHAN | Salvage, Sonya",
   "RegionalManagers": "Veronica Mendez UNVIL | Angela Mons Unilever DRT RAD | Raina Rogge | Shawn Massey | Sherry Blankenhorn",
   "Teams": "Unilever - DRT | WM - Walmart/Sams PSP | Crossmark Walmart PSP | Dedicated - Walmart PSP",
   "StoreName": "SAFEWAY",
   "City": "Santa Clara",
   "State": "CA",
   "Latitude": 37.3380751,
   "Longitude": -121.9750026
 },
 {
   "StoreKey": 2486,
   "AreaManagers": "Renfrow (UNILV), Kimberly | Cline, Jennifer | ALCALA, ALEJANDRO | Cross, Shawn | Ott (UNILV), Jan",
   "RegionalManagers": "Veronica Mendez UNVIL | Veronica Hernandez | Shannon Falcon RAD | Angel Bruce | Angela Mons Unilever DRT RAD",
   "Teams": "Unilever - DRT | WM - Walmart/Sams PSP | Crossmark Walmart PSP | Dedicated - Walmart PSP",
   "StoreName": "Walmart NM",
   "City": "San Jose",
   "State": "CA",
   "Latitude": 37.3216605,
   "Longitude": -121.9732084
 },
 {
   "StoreKey": 5628,
   "AreaManagers": "Toriumi, Lisa | Kristek, Dustin | Simpson, Gena",
   "RegionalManagers": " | Shannon Falcon RAD | Roy Anders",
   "Teams": "WM - Walmart/Sams PSP | Crossmark Walmart PSP | Dedicated - Walmart PSP",
   "StoreName": "Walmart SC",
   "City": "Monroe",
   "State": "WA",
   "Latitude": 47.865701,
   "Longitude": -121.9721061
 },
 {
   "StoreKey": 2795,
   "AreaManagers": "Renfrow (UNILV), Kimberly | Mathis (UNILV), Judith | Hogshire, Brenda | CLARK, ASHLEY | Tyler, Kimberly",
   "RegionalManagers": "Veronica Mendez UNVIL | Connie Germoso UNVIL | Brian Schubert | Elizabeth Sinclair | Roy Anders",
   "Teams": "Unilever - DRT | WM - Walmart/Sams PSP | Crossmark Walmart PSP | Dedicated - Walmart PSP",
   "StoreName": "Target",
   "City": "Capitola",
   "State": "CA",
   "Latitude": 36.9751119,
   "Longitude": -121.9689521
 },
 {
   "StoreKey": 2615,
   "AreaManagers": "Renfrow (UNILV), Kimberly | Walton, Dayvon | COLLINS, LASHUNDA | Orr, Janeice",
   "RegionalManagers": "Veronica Mendez UNVIL | Raina Rogge | Shawn Massey | Angel Bruce",
   "Teams": "Unilever - DRT | WM - Walmart/Sams PSP | Crossmark Walmart PSP | Dedicated - Walmart PSP",
   "StoreName": "Target",
   "City": "Fremont",
   "State": "CA",
   "Latitude": 37.501549,
   "Longitude": -121.9682845
 },
 {
   "StoreKey": 3241,
   "AreaManagers": "Renfrow (UNILV), Kimberly | Korn (UNILV), Laurie | Lagos, Lisa | CHEATOM, REGINA | Marrone, Andrew A | Clark, Debbie | Oblenis, Keith",
   "RegionalManagers": "Veronica Mendez UNVIL | Veronica Hernandez | Shannon Falcon RAD | James Johnson | Angel Bruce | LT Haymon RAD WMTyson",
   "Teams": "Unilever - DRT | WM - Walmart/Sams PSP | Crossmark Walmart PSP | WM - DRT - P&G | Dedicated - Walmart PSP | WM - DRT - Tyson",
   "StoreName": "SAFEWAY",
   "City": "Campbell",
   "State": "CA",
   "Latitude": 37.2931181,
   "Longitude": -121.9668277
 },
 {
   "StoreKey": 949,
   "AreaManagers": "Renfrow (UNILV), Kimberly",
   "RegionalManagers": "Veronica Mendez UNVIL",
   "Teams": "Unilever - DRT",
   "StoreName": "Target",
   "City": "SAN RAMON",
   "State": "CA",
   "Latitude": 37.7621464,
   "Longitude": -121.9641968
 },
 {
   "StoreKey": 1929,
   "AreaManagers": "Renfrow (UNILV), Kimberly | Beyersdorf, Jennifer | Ahrens, Lorena | Maphis, Julie | Chiger UNILV, Brandon",
   "RegionalManagers": "Veronica Mendez UNVIL | Jonathan Shockey RAD | Shannon Falcon RAD | Roy Anders | Connie Germoso UNVIL",
   "Teams": "Unilever - DRT | WM - Walmart/Sams PSP | Crossmark Walmart PSP | Dedicated - Walmart PSP",
   "StoreName": "SAFEWAY",
   "City": "Soquel",
   "State": "CA",
   "Latitude": 36.9861086,
   "Longitude": -121.963284
 },
 {
   "StoreKey": 2830,
   "AreaManagers": "Renfrow (UNILV), Kimberly | Maino (UNILV), Andrew | Henry, Linda | NICODEMUS, ROXANNE | Kucera RMM WM DRT P&G, Cherise | Simko, Linda | Varnell, Jill",
   "RegionalManagers": "Veronica Mendez UNVIL | Connie Germoso UNVIL | Alicia Fiechter | Elizabeth Sinclair | James Johnson | Roy Anders | LT Haymon RAD WMTyson",
   "Teams": "Unilever - DRT | WM - Walmart/Sams PSP | Crossmark Walmart PSP | WM - DRT - P&G | Dedicated - Walmart PSP | WM - DRT - Tyson",
   "StoreName": "Target",
   "City": "Santa Clara",
   "State": "CA",
   "Latitude": 37.3503277,
   "Longitude": -121.9610256
 },
 {
   "StoreKey": 1704,
   "AreaManagers": "Renfrow (UNILV), Kimberly | Cline, Jennifer | ALCALA, ALEJANDRO | Cross, Shawn | Oblenis, Keith | Fredrick (UNILV), Linda",
   "RegionalManagers": "Veronica Mendez UNVIL | Veronica Hernandez | Shannon Falcon RAD | Angel Bruce | LT Haymon RAD WMTyson | Connie Germoso UNVIL",
   "Teams": "Unilever - DRT | WM - Walmart/Sams PSP | Crossmark Walmart PSP | Dedicated - Walmart PSP | WM - DRT - Tyson",
   "StoreName": "Walmart SC",
   "City": "Vacaville",
   "State": "CA",
   "Latitude": 38.3621181,
   "Longitude": -121.958865
 },
 {
   "StoreKey": 6433,
   "AreaManagers": "Cline, Jennifer",
   "RegionalManagers": "Veronica Hernandez",
   "Teams": "WM - Walmart/Sams PSP",
   "StoreName": "Sam's Club",
   "City": "Vacaville",
   "State": "CA",
   "Latitude": 38.3637514,
   "Longitude": -121.9576286
 },
 {
   "StoreKey": 993,
   "AreaManagers": "Renfrow (UNILV), Kimberly | Bourque, Elizabeth | STOUT, CHRISTINE | Stull, Monica | Eby (UNILV), Kathi",
   "RegionalManagers": "Veronica Mendez UNVIL | Jonathan Shockey RAD | Shannon Falcon RAD | Angel Bruce | Angela Mons Unilever DRT RAD",
   "Teams": "Unilever - DRT | WM - Walmart/Sams PSP | Crossmark Walmart PSP | Dedicated - Walmart PSP",
   "StoreName": "SAFEWAY",
   "City": "Fremont",
   "State": "CA",
   "Latitude": 37.5317313,
   "Longitude": -121.9572184
 },
 {
   "StoreKey": 2581,
   "AreaManagers": "Renfrow (UNILV), Kimberly | Torres (UNILV), Natalie | Vadala, Laura | BURBANK, KORI | Simko, Linda | Chiger UNILV, Brandon",
   "RegionalManagers": "Veronica Mendez UNVIL | Connie Germoso UNVIL | Alicia Fiechter | Elizabeth Sinclair | Roy Anders",
   "Teams": "Unilever - DRT | WM - Walmart/Sams PSP | Crossmark Walmart PSP | Dedicated - Walmart PSP",
   "StoreName": "Target",
   "City": "San Jose",
   "State": "CA",
   "Latitude": 37.4181795,
   "Longitude": -121.9561986
 },
 {
   "StoreKey": 1195,
   "AreaManagers": "Renfrow (UNILV), Kimberly | Woodward, Shelley | CREGER, SHARON | Henrichsen, Kelly | Guzman (UNILV), Yolanda",
   "RegionalManagers": "Veronica Mendez UNVIL | Raina Rogge | Shawn Massey | Sherry Blankenhorn | Angela Mons Unilever DRT RAD",
   "Teams": "Unilever - DRT | WM - Walmart/Sams PSP | Crossmark Walmart PSP | Dedicated - Walmart PSP",
   "StoreName": "SAFEWAY",
   "City": "CLAYTON",
   "State": "CA",
   "Latitude": 37.9535929,
   "Longitude": -121.953767
 },
 {
   "StoreKey": 2968,
   "AreaManagers": "Renfrow (UNILV), Kimberly | Warnecke, Daffney | JUDD, JACQUELINE | Wolsefer, Donna",
   "RegionalManagers": "Veronica Mendez UNVIL | Alicia Fiechter | Elizabeth Sinclair | Angel Bruce",
   "Teams": "Unilever - DRT | WM - Walmart/Sams PSP | Crossmark Walmart PSP | Dedicated - Walmart PSP",
   "StoreName": "SAFEWAY",
   "City": "San Jose",
   "State": "CA",
   "Latitude": 37.3008003,
   "Longitude": -121.9518556
 },
 {
   "StoreKey": 5007,
   "AreaManagers": "Renfrow (UNILV), Kimberly | Cline, Jennifer | ALCALA, ALEJANDRO | Cross, Shawn",
   "RegionalManagers": "Veronica Mendez UNVIL | Veronica Hernandez | Shannon Falcon RAD | Angel Bruce",
   "Teams": "Unilever - DRT | WM - Walmart/Sams PSP | Crossmark Walmart PSP | Dedicated - Walmart PSP",
   "StoreName": "Walmart NM",
   "City": "Vacaville",
   "State": "CA",
   "Latitude": 38.3505653,
   "Longitude": -121.9510439
 },
 {
   "StoreKey": 1293,
   "AreaManagers": "Renfrow (UNILV), Kimberly | Navor (UNILV), Michael | Couillard, Cherry | VADALA, JENNY | Orr, Janeice",
   "RegionalManagers": "Veronica Mendez UNVIL | Raina Rogge | Shawn Massey | Angel Bruce",
   "Teams": "Unilever - DRT | WM - Walmart/Sams PSP | Crossmark Walmart PSP | Dedicated - Walmart PSP",
   "StoreName": "SAFEWAY",
   "City": "Campbell",
   "State": "CA",
   "Latitude": 37.280197,
   "Longitude": -121.9507743
 },
 {
   "StoreKey": 1990,
   "AreaManagers": "Renfrow (UNILV), Kimberly | Warnecke, Daffney | QUEEN, JOHN | MacDougall, David",
   "RegionalManagers": "Veronica Mendez UNVIL | Alicia Fiechter | Elizabeth Sinclair | Roy Anders",
   "Teams": "Unilever - DRT | WM - Walmart/Sams PSP | Crossmark Walmart PSP | Dedicated - Walmart PSP",
   "StoreName": "SAFEWAY",
   "City": "Santa Clara",
   "State": "CA",
   "Latitude": 37.3942711,
   "Longitude": -121.9475807
 },
 {
   "StoreKey": 1215,
   "AreaManagers": "Renfrow (UNILV), Kimberly | Mosteller (UNILV), Dawn | Skelton, Tammy | WESTMORELAND, CHRISTOPHER | Orr, Janeice | Varnell, Jill | Ruiz (UNILV), Pedro | Husk (UNILV), James",
   "RegionalManagers": "Veronica Mendez UNVIL | Angela Mons Unilever DRT RAD | Brian Schubert | Shawn Massey | Angel Bruce | LT Haymon RAD WMTyson | Connie Germoso UNVIL",
   "Teams": "Unilever - DRT | WM - Walmart/Sams PSP | Crossmark Walmart PSP | Dedicated - Walmart PSP | WM - DRT - Tyson",
   "StoreName": "SAFEWAY",
   "City": "W PITTSBURG",
   "State": "CA",
   "Latitude": 38.0160881,
   "Longitude": -121.9435322
 },
 {
   "StoreKey": 2989,
   "AreaManagers": "Renfrow (UNILV), Kimberly | Cline, Jennifer | ALCALA, ALEJANDRO | Cross, Shawn | Navor (UNILV), Michael",
   "RegionalManagers": "Veronica Mendez UNVIL | Veronica Hernandez | Shannon Falcon RAD | Angel Bruce",
   "Teams": "Unilever - DRT | WM - Walmart/Sams PSP | Crossmark Walmart PSP | Dedicated - Walmart PSP",
   "StoreName": "Walmart",
   "City": "Fremont",
   "State": "CA",
   "Latitude": 37.5113651,
   "Longitude": -121.9432129
 },
 {
   "StoreKey": 763,
   "AreaManagers": "Renfrow (UNILV), Kimberly | Guzman (UNILV), Yolanda | Mathis (UNILV), Judith",
   "RegionalManagers": "Veronica Mendez UNVIL | Angela Mons Unilever DRT RAD | Connie Germoso UNVIL",
   "Teams": "Unilever - DRT",
   "StoreName": "Safeway Store",
   "City": "Santa Clara",
   "State": "CA",
   "Latitude": 37.3452351,
   "Longitude": -121.9365793
 },
 {
   "StoreKey": 1245,
   "AreaManagers": "Renfrow (UNILV), Kimberly | Porter, Trena | Guzman (UNILV), Yolanda | Specht WM RMM, Wolf | ERVIN, KIMBERLY | Marcum, Joel | Phillips, Patricia",
   "RegionalManagers": "Veronica Mendez UNVIL |  | Angela Mons Unilever DRT RAD | Raina Rogge | Shawn Massey | Sherry Blankenhorn | LT Haymon RAD WMTyson",
   "Teams": "Unilever - DRT | WM - Walmart/Sams PSP | Crossmark Walmart PSP | Dedicated - Walmart PSP | WM - DRT - Tyson",
   "StoreName": "SAFEWAY",
   "City": "Los Gatos",
   "State": "CA",
   "Latitude": 37.2424439,
   "Longitude": -121.9325905
 },